[
{"rank":1,"name":"Hartsfield–Jackson Atlanta International Airport","iata":"ATL-sky","city":"Atlanta","country":"United States","passengers":103902992,"geo":"33.6367, -84.428101"},
{"rank":2,"name":"Beijing Capital International Airport","iata":"PEK-sky","city":"Beijing","country":"China","passengers":95786442,"geo":"40.080101013183594, 116.58499908447266"},
{"rank":3,"name":"Dubai International Airport","iata":"DXB-sky","city":"Dubai","country":"United Arab Emirates","passengers":88242099,"geo":"25.2527999878, 55.3643989563"},
{"rank":4,"name":"Los Angeles International Airport","iata":"LAX-sky","city":"Los Angeles","country":"United States","passengers":84557968,"geo":"33.94250107, -118.4079971"},
{"rank":5,"name":"O'Hare International Airport","iata":"ORD-sky","city":"Chicago","country":"United States","passengers":79828183,"geo":"41.9786, -87.9048"},
{"rank":6,"name":"Heathrow Airport","iata":"LHR-sky","city":"London","country":"United Kingdom","passengers":78014598,"geo":"51.4706, -0.461941"},
{"rank":7,"name":"Haneda Airport","iata":"HND-sky","city":"Tokyo","country":"Japan","passengers":76476251,"geo":"35.552299, 139.779999"},
{"rank":8,"name":"Hong Kong International Airport","iata":"HKG-sky","city":"Hong Kong","country":"Hong Kong","passengers":72665078,"geo":"22.308901, 113.915001"},
{"rank":9,"name":"Shanghai Pudong International Airport","iata":"PVG-sky","city":"Shanghai","country":"China","passengers":70001237,"geo":"31.143400192260742, 121.80500030517578"},
{"rank":10,"name":"Charles de Gaulle International Airport","iata":"CDG-sky","city":"Paris","country":"France","passengers":69471442,"geo":"49.012798, 2.55"},
{"rank":11,"name":"Amsterdam Airport Schiphol","iata":"AMS-sky","city":"Amsterdam","country":"Netherlands","passengers":68515425,"geo":"52.308601, 4.76389"},
{"rank":12,"name":"Dallas-Fort Worth International Airport","iata":"DFW-sky","city":"Dallas","country":"United States","passengers":67092194,"geo":"32.896801, -97.038002"},
{"rank":13,"name":"Guangzhou Baiyun International Airport","iata":"CAN-sky","city":"Guangzhou","country":"China","passengers":65887473,"geo":"23.39240074157715, 113.29900360107422"},
{"rank":14,"name":"Frankfurt am Main International Airport","iata":"FRA-sky","city":"Frankfurt","country":"Germany","passengers":64500386,"geo":"50.033333, 8.570556"},
{"rank":15,"name":"Istanbul Atatürk Airport","iata":"IST-sky","city":"Istanbul","country":"Turkey","passengers":63859785,"geo":"41.275278, 28.751944"},
{"rank":16,"name":"Indira Gandhi International Airport","iata":"DEL-sky","city":"Delhi","country":"India","passengers":63451503,"geo":"28.5665, 77.103104"},
{"rank":17,"name":"Soekarno-Hatta International Airport","iata":"CGK-sky","city":"Jakarta","country":"Indonesia","passengers":63015620,"geo":"-6.1255698204, 106.65599823"},
{"rank":18,"name":"Singapore Changi Airport","iata":"SIN-sky","city":"Singapore","country":"Singapore","passengers":62219573,"geo":"1.35019, 103.994003"},
{"rank":19,"name":"Incheon International Airport","iata":"ICN-sky","city":"Seoul","country":"South Korea","passengers":62157834,"geo":"37.46910095214844, 126.45099639892578"},
{"rank":20,"name":"Denver International Airport","iata":"DEN-sky","city":"Denver","country":"United States","passengers":61379396,"geo":"39.861698150635, -104.672996521"},
{"rank":21,"name":"Suvarnabhumi Airport","iata":"BKK-sky","city":"Bangkok","country":"Thailand","passengers":60860557,"geo":"13.681099891662598, 100.74700164794922"},
{"rank":22,"name":"John F. Kennedy International Airport","iata":"JFK-sky","city":"New York","country":"United States","passengers":59392500,"geo":"40.63980103, -73.77890015"},
{"rank":23,"name":"Kuala Lumpur International Airport","iata":"KUL-sky","city":"Kuala Lumpur","country":"Malaysia","passengers":58558440,"geo":"2.745579957962, 101.70999908447"},
{"rank":24,"name":"San Francisco International Airport","iata":"SFO-sky","city":"San Francisco","country":"United States","passengers":55822129,"geo":"37.61899948120117, -122.375"},
{"rank":25,"name":"Adolfo Suárez Madrid–Barajas Airport","iata":"MAD-sky","city":"Madrid","country":"Spain","passengers":53386075,"geo":"40.471926, -3.56264"},
{"rank":26,"name":"Chengdu Shuangliu International Airport","iata":"CTU-sky","city":"Chengdu","country":"China","passengers":49801693,"geo":"30.578500747680664, 103.9469985961914"},
{"rank":27,"name":"McCarran International Airport","iata":"LAS-sky","city":"Las Vegas","country":"United States","passengers":48566803,"geo":"36.08010101, -115.1520004"},
{"rank":28,"name":"Barcelona–El Prat Airport","iata":"BCN-sky","city":"Barcelona","country":"Spain","passengers":47262826,"geo":"41.2971, 2.07846"},
{"rank":29,"name":"Chhatrapati Shivaji International Airport","iata":"BOM-sky","city":"Mumbai","country":"India","passengers":47204259,"geo":"19.0886993408, 72.8678970337"},
{"rank":30,"name":"Toronto Pearson International Airport","iata":"YYZ-sky","city":"Toronto","country":"Canada","passengers":47054696,"geo":"43.6772003174, -79.63059997559999"},
{"rank":31,"name":"Seattle–Tacoma International Airport","iata":"SEA-sky","city":"Seattle","country":"United States","passengers":46934194,"geo":"47.449001, -122.308998"},
{"rank":32,"name":"Charlotte Douglas International Airport","iata":"CLT-sky","city":"Charlotte","country":"United States","passengers":45909899,"geo":"35.2140007019043, -80.94309997558594"},
{"rank":33,"name":"Gatwick Airport","iata":"LGW-sky","city":"London","country":"United Kingdom","passengers":45561694,"geo":"51.148102, -0.190278"},
{"rank":34,"name":"Shenzhen Bao'an International Airport","iata":"SZX-sky","city":"Shenzhen","country":"China","passengers":45558409,"geo":"22.639299392700195, 113.81099700927734"},
{"rank":35,"name":"Taiwan Taoyuan International Airport","iata":"TPE-sky","city":"Taipei","country":"Taiwan","passengers":44878703,"geo":"25.0777, 121.233002"},
{"rank":36,"name":"Mexico City International Airport","iata":"MEX-sky","city":"Mexico City","country":"Mexico","passengers":44732418,"geo":"19.4363, -99.072098"},
{"rank":37,"name":"Kunming Changshui International Airport","iata":"KMG-sky","city":"Kunming","country":"China","passengers":44729736,"geo":"25.1019444, 102.9291667"},
{"rank":38,"name":"Munich Airport","iata":"MUC-sky","city":"Munich","country":"Germany","passengers":44577241,"geo":"48.353802, 11.7861"},
{"rank":39,"name":"Orlando International Airport","iata":"MCO-sky","city":"Orlando","country":"United States","passengers":44511265,"geo":"28.429399490356445, -81.30899810791016"},
{"rank":40,"name":"Miami International Airport","iata":"MIA-sky","city":"Miami","country":"United States","passengers":44071313,"geo":"25.79319953918457, -80.29060363769531"},
{"rank":41,"name":"Phoenix Sky Harbor International Airport","iata":"PHX-sky","city":"Phoenix","country":"United States","passengers":43921670,"geo":"33.43429946899414, -112.01200103759766"},
{"rank":42,"name":"Sydney Airport","iata":"SYD-sky","city":"Sydney","country":"Australia","passengers":43410355,"geo":"-33.94609832763672, 151.177001953125"},
{"rank":43,"name":"Newark Liberty International Airport","iata":"EWR-sky","city":"Newark","country":"United States","passengers":43393499,"geo":"40.692501068115234, -74.168701171875"},
{"rank":44,"name":"Ninoy Aquino International Airport","iata":"MNL-sky","city":"Manila","country":"Philippines","passengers":42022484,"geo":"14.5086, 121.019997"},
{"rank":45,"name":"Shanghai Hongqiao International Airport","iata":"SHA-sky","city":"Shanghai","country":"China","passengers":41884059,"geo":"31.197900772094727, 121.33599853515625"},
{"rank":46,"name":"Xi'an Xianyang International Airport","iata":"XIY-sky","city":"Xi'an","country":"China","passengers":41857406,"geo":"34.447102, 108.751999"},
{"rank":47,"name":"Leonardo da Vinci–Fiumicino Airport","iata":"FCO-sky","city":"Rome","country":"Italy","passengers":40968756,"geo":"41.8002778, 12.2388889"},
{"rank":48,"name":"George Bush Intercontinental Houston Airport","iata":"IAH-sky","city":"Houston","country":"United States","passengers":40696189,"geo":"29.984399795532227, -95.34140014648438"},
{"rank":49,"name":"Narita International Airport","iata":"NRT-sky","city":"Tokyo","country":"Japan","passengers":40631193,"geo":"35.7647018433, 140.386001587"},
{"rank":50,"name":"Sheremetyevo International Airport","iata":"SVO-sky","city":"Moscow","country":"Russia","passengers":40092806,"geo":"55.972599, 37.4146"},
{"rank":51,"name":"Chongqing Jiangbei International Airport","iata":"CKG-sky","city":"Chongqing","country":"China","passengers":38715210,"geo":"29.719200134277344, 106.64199829101562"},
{"rank":52,"name":"Don Mueang International Airport","iata":"DMK-sky","city":"Bangkok","country":"Thailand","passengers":38299757,"geo":"13.9125995636, 100.607002258"},
{"rank":53,"name":"Minneapolis-St Paul International/Wold-Chamberlain Airport","iata":"MSP-sky","city":"Minneapolis","country":"United States","passengers":38034341,"geo":"44.882, -93.221802"},
{"rank":54,"name":"São Paulo–Guarulhos International Airport","iata":"GRU-sky","city":"Sao Paulo","country":"Brazil","passengers":37774000,"geo":"-23.435556411743164, -46.47305679321289"},
{"rank":55,"name":"Logan International Airport","iata":"BOS-sky","city":"Boston","country":"United States","passengers":36288042,"geo":"42.36429977, -71.00520325"},
{"rank":56,"name":"Tan Son Nhat International Airport","iata":"SGN-sky","city":"Ho Chi Minh City","country":"Vietnam","passengers":35900000,"geo":"10.8187999725, 106.652000427"},
{"rank":57,"name":"Hamad International Airport","iata":"DOH-sky","city":"Doha","country":"Qatar","passengers":35867252,"geo":"25.273056, 51.608056"},
{"rank":58,"name":"Hangzhou Xiaoshan International Airport","iata":"HGH-sky","city":"Hangzhou","country":"China","passengers":35570411,"geo":"30.22949981689453, 120.43399810791016"},
{"rank":59,"name":"Detroit Metropolitan Wayne County Airport","iata":"DTW-sky","city":"Detroit","country":"United States","passengers":34701497,"geo":"42.212398529052734, -83.35340118408203"},
{"rank":60,"name":"King Abdulaziz International Airport","iata":"JED-sky","city":"Jeddah","country":"Saudi Arabia","passengers":33917282,"geo":"21.6796, 39.156502"},
{"rank":61,"name":"Melbourne Airport","iata":"MEL-sky","city":"Melbourne","country":"Australia","passengers":33704854,"geo":"-37.673302, 144.843002"},
{"rank":62,"name":"Fort Lauderdale Hollywood International Airport","iata":"FLL-sky","city":"Fort Lauderdale","country":"United States","passengers":32511053,"geo":"26.072599, -80.152702"},
{"rank":64,"name":"Sabiha Gökçen International Airport","iata":"SAW-sky","city":"Istanbul","country":"Turkey","passengers":31385841,"geo":"40.898601532, 29.3092002869"},
{"rank":65,"name":"El Dorado International Airport","iata":"BOG-sky","city":"Bogota","country":"Colombia","passengers":30989932,"geo":"4.70159, -74.1469"},
{"rank":66,"name":"Moscow Domodedovo Airport","iata":"DME-sky","city":"Moscow","country":"Russia","passengers":30700000,"geo":"55.40879821777344, 37.90629959106445"},
{"rank":67,"name":"Jeju International Airport","iata":"CJU-sky","city":"Cheju","country":"South Korea","passengers":29846712,"geo":"33.51129913330078, 126.49299621582031"},
{"rank":68,"name":"LaGuardia Airport","iata":"LGA-sky","city":"New York","country":"United States","passengers":29786769,"geo":"40.77719879, -73.87259674"},
{"rank":69,"name":"Philadelphia International Airport","iata":"PHL-sky","city":"Philadelphia","country":"United States","passengers":29585754,"geo":"39.87189865112305, -75.24109649658203"},
{"rank":70,"name":"Dublin Airport","iata":"DUB-sky","city":"Dublin","country":"Ireland","passengers":29582321,"geo":"53.421299, -6.27007"},
{"rank":71,"name":"Zürich Airport","iata":"ZRH-sky","city":"Zurich","country":"Switzerland","passengers":29396094,"geo":"47.464699, 8.54917"},
{"rank":72,"name":"Copenhagen Airport","iata":"CPH-sky","city":"Copenhagen","country":"Denmark","passengers":29177833,"geo":"55.617900848389, 12.656000137329"},
{"rank":73,"name":"Kansai International Airport","iata":"KIX-sky","city":"Osaka","country":"Japan","passengers":27983093,"geo":"34.42729949951172, 135.24400329589844"},
{"rank":74,"name":"Palma De Mallorca Airport","iata":"PMI-sky","city":"Palma de Mallorca","country":"Spain","passengers":27970655,"geo":"39.551700592, 2.73881006241"},
{"rank":75,"name":"Manchester Airport","iata":"MAN-sky","city":"Manchester","country":"United Kingdom","passengers":27901708,"geo":"53.35369873046875, -2.2749500274658203"},
{"rank":77,"name":"Lisbon Portela Airport","iata":"LIS-sky","city":"Lisbon","country":"Portugal","passengers":26669755,"geo":"38.7813, -9.13592"},
{"rank":78,"name":"Stockholm Arlanda Airport","iata":"ARN-sky","city":"Stockholm","country":"Sweden","passengers":26642034,"geo":"59.651901245117, 17.918600082397"},
{"rank":79,"name":"Baltimore/Washington International Thurgood Marshall Airport","iata":"BWI-sky","city":"Baltimore","country":"United States","passengers":26369411,"geo":"39.1754, -76.668297"},
{"rank":80,"name":"Antalya Airport","iata":"AYT-sky","city":"Antalya","country":"Turkey","passengers":25931659,"geo":"36.898701, 30.800501"},
{"rank":81,"name":"London Stansted Airport","iata":"STN-sky","city":"London","country":"United Kingdom","passengers":25904573,"geo":"51.8849983215, 0.234999999404"},
{"rank":82,"name":"Nanjing Lukou International Airport","iata":"NKG-sky","city":"Nanjing","country":"China","passengers":25822936,"geo":"31.742000579833984, 118.86199951171875"},
{"rank":83,"name":"Gimpo International Airport","iata":"GMP-sky","city":"Seoul","country":"South Korea","passengers":25267408,"geo":"37.5583, 126.791"},
{"rank":84,"name":"Kempegowda International Airport","iata":"BLR-sky","city":"Bangalore","country":"India","passengers":25047272,"geo":"13.1979, 77.706299"},
{"rank":85,"name":"King Khaled International Airport","iata":"RUH-sky","city":"Riyadh","country":"Saudi Arabia","passengers":25038000,"geo":"24.957599639892578, 46.69879913330078"},
{"rank":86,"name":"Brussels Airport","iata":"BRU-sky","city":"Brussels","country":"Belgium","passengers":24783911,"geo":"50.901401519800004, 4.48443984985"},
{"rank":87,"name":"Düsseldorf International Airport","iata":"DUS-sky","city":"Duesseldorf","country":"Germany","passengers":24640564,"geo":"51.289501, 6.76678"},
{"rank":88,"name":"Xiamen Gaoqi International Airport","iata":"XMN-sky","city":"Xiamen","country":"China","passengers":24485239,"geo":"24.54400062561035, 118.12799835205078"},
{"rank":89,"name":"Vienna International Airport","iata":"VIE-sky","city":"Vienna","country":"Austria","passengers":24392805,"geo":"48.110298156738, 16.569700241089"},
{"rank":90,"name":"Zhengzhou Xinzheng International Airport","iata":"CGO-sky","city":"Zhengzhou","country":"China","passengers":24299073,"geo":"34.519699096699995, 113.841003418"},
{"rank":91,"name":"Salt Lake City International Airport","iata":"SLC-sky","city":"Salt Lake City","country":"United States","passengers":24198816,"geo":"40.78839874267578, -111.97799682617188"},
{"rank":92,"name":"Vancouver International Airport","iata":"YVR-sky","city":"Vancouver","country":"Canada","passengers":24166122,"geo":"49.193901062, -123.183998108"},
{"rank":93,"name":"Ronald Reagan Washington National Airport","iata":"DCA-sky","city":"Washington","country":"United States","passengers":23928248,"geo":"38.8521, -77.037697"},
{"rank":94,"name":"Changsha Huanghua International Airport","iata":"CSX-sky","city":"Changcha","country":"China","passengers":23764820,"geo":"28.189199447599997, 113.220001221"},
{"rank":95,"name":"Abu Dhabi International Airport","iata":"AUH-sky","city":"Abu Dhabi","country":"United Arab Emirates","passengers":23760561,"geo":"24.433000564575195, 54.651100158691406"},
{"rank":96,"name":"Cancún International Airport","iata":"CUN-sky","city":"Cancun","country":"Mexico","passengers":23601509,"geo":"21.036500930800003, -86.8770980835"},
{"rank":97,"name":"Fukuoka Airport","iata":"FUK-sky","city":"Fukuoka","country":"Japan","passengers":23484678,"geo":"33.585899353027344, 130.4510040283203"},
{"rank":98,"name":"Liuting Airport","iata":"TAO-sky","city":"Qingdao","country":"China","passengers":23210530,"geo":"36.2661018372, 120.374000549"},
{"rank":99,"name":"Brisbane International Airport","iata":"BNE-sky","city":"Brisbane","country":"Australia","passengers":23205702,"geo":"-27.384199142456055, 153.11700439453125"},
{"rank":100,"name":"Wuhan Tianhe International Airport","iata":"WUH-sky","city":"Wuhan","country":"China","passengers":23129400,"geo":"30.7838, 114.208"},
{"rank":101,"name":"Noi Bai International Airport","iata":"HAN-sky","city":"Hanoi","country":"Vietnam","passengers":23068227,"geo":"21.221200942993164, 105.80699920654297"},
{"rank":102,"name":"New Chitose Airport","iata":"CTS-sky","city":"Sapporo","country":"Japan","passengers":22916914,"geo":"42.77519989013672, 141.69200134277344"},
{"rank":103,"name":"Washington Dulles International Airport","iata":"IAD-sky","city":"Washington","country":"United States","passengers":22892504,"geo":"38.94449997, -77.45580292"},
{"rank":104,"name":"Ngurah Rai International Airport","iata":"DPS-sky","city":"Denpasar","country":"Indonesia","passengers":22863647,"geo":"-8.7481698989868, 115.16699981689"},
{"rank":105,"name":"Haikou Meilan International Airport","iata":"HAK-sky","city":"Haikou","country":"China","passengers":22584815,"geo":"19.934900283813477, 110.45899963378906"},
{"rank":106,"name":"Midway International Airport","iata":"MDW-sky","city":"Chicago","country":"United States","passengers":22460236,"geo":"41.785999, -87.752403"},
{"rank":107,"name":"Comodoro Arturo Merino Benítez International Airport","iata":"SCL-sky","city":"Santiago","country":"Chile","passengers":22316093,"geo":"-33.393001556396484, -70.78579711914062"},
{"rank":108,"name":"San Diego International Airport","iata":"SAN-sky","city":"San Diego","country":"United States","passengers":22173493,"geo":"32.7336006165, -117.190002441"},
{"rank":109,"name":"Milan–Malpensa Airport","iata":"MXP-sky","city":"Milano","country":"Italy","passengers":22169167,"geo":"45.6306, 8.72811"},
{"rank":110,"name":"Jorge Chávez International Airport","iata":"LIM-sky","city":"Lima","country":"Peru","passengers":22046042,"geo":"-12.0219, -77.114305"},
{"rank":111,"name":"Juanda International Airport","iata":"SUB-sky","city":"Surabaya","country":"Indonesia","passengers":21882335,"geo":"-7.3798298835754395, 112.78700256347656"},
{"rank":112,"name":"São Paulo–Congonhas Airport","iata":"CGH-sky","city":"Sao Paulo","country":"Brazil","passengers":21859453,"geo":"-23.626110076904297, -46.65638732910156"},
{"rank":113,"name":"Athens International Airport","iata":"ATH-sky","city":"Athens","country":"Greece","passengers":21737787,"geo":"37.9364013672, 23.9444999695"},
{"rank":114,"name":"Ürümqi Diwopu International Airport","iata":"URC-sky","city":"Urumqi","country":"China","passengers":21500901,"geo":"43.907100677490234, 87.47419738769531"},
{"rank":115,"name":"O. R. Tambo International Airport","iata":"JNB-sky","city":"Johannesburg","country":"South Africa","passengers":21180060,"geo":"-26.1392, 28.246"},
{"rank":116,"name":"Sanya Phoenix International Airport","iata":"SYX-sky","city":"Sanya","country":"China","passengers":21005001,"geo":"18.302900314331055, 109.41200256347656"},
{"rank":117,"name":"Ben Gurion International Airport","iata":"TLV-sky","city":"Tel-aviv","country":"Israel","passengers":20781226,"geo":"32.01139831542969, 34.88669967651367"},
{"rank":118,"name":"Tianjin Binhai International Airport","iata":"TSN-sky","city":"Tianjin","country":"China","passengers":20711697,"geo":"39.124401092499994, 117.346000671"},
{"rank":119,"name":"Naha Airport","iata":"OKA-sky","city":"Okinawa","country":"Japan","passengers":20569935,"geo":"26.1958007812, 127.646003723"},
{"rank":120,"name":"Berlin-Tegel International Airport","iata":"TXL-sky","city":"Berlin","country":"Germany","passengers":20460688,"geo":"52.5597, 13.2877"},
{"rank":121,"name":"Netaji Subhash Chandra Bose International Airport","iata":"CCU-sky","city":"Kolkata","country":"India","passengers":20167698,"geo":"22.654699325561523, 88.44670104980469"},
{"rank":122,"name":"Daniel K. Inouye International Airport","iata":"HNL-sky","city":"Honolulu","country":"United States","passengers":19950125,"geo":"21.32062, -157.924228"},
{"rank":123,"name":"Tampa International Airport","iata":"TPA-sky","city":"Tampa","country":"United States","passengers":19624284,"geo":"27.975500106811523, -82.533203125"},
{"rank":124,"name":"Chennai International Airport","iata":"MAA-sky","city":"Madras","country":"India","passengers":19599438,"geo":"12.990005493164062, 80.16929626464844"},
{"rank":125,"name":"Portland International Airport","iata":"PDX-sky","city":"Portland","country":"United States","passengers":19080454,"geo":"45.58869934, -122.5979996"},
{"rank":126,"name":"Auckland International Airport","iata":"AKL-sky","city":"Auckland","country":"New Zealand","passengers":19020573,"geo":"-37.008098602299995, 174.792007446"},
{"rank":127,"name":"Helsinki Airport","iata":"HEL-sky","city":"Helsinki","country":"Finland","passengers":18892386,"geo":"60.317199707031, 24.963300704956"},
{"rank":128,"name":"Taiping Airport","iata":"HRB-sky","city":"Harbin","country":"China","passengers":18810317,"geo":"45.6234016418457, 126.25"},
{"rank":129,"name":"Málaga Airport","iata":"AGP-sky","city":"Malaga","country":"Spain","passengers":18628876,"geo":"36.67490005493164, -4.499110221862793"},
{"rank":130,"name":"Montréal–Pierre Elliott Trudeau International Airport","iata":"YUL-sky","city":"Montreal","country":"Canada","passengers":18160223,"geo":"45.4706001282, -73.7407989502"},
{"rank":131,"name":"Vnukovo International Airport","iata":"VKO-sky","city":"Moscow","country":"Russia","passengers":18139000,"geo":"55.5914993286, 37.2615013123"},
{"rank":132,"name":"Longdongbao Airport","iata":"KWE-sky","city":"Guiyang","country":"China","passengers":18109610,"geo":"26.53849983215332, 106.8010025024414"},
{"rank":133,"name":"Hamburg Airport","iata":"HAM-sky","city":"Hamburg","country":"Germany","passengers":17622997,"geo":"53.630401611328, 9.9882297515869"},
{"rank":134,"name":"Zhoushuizi Airport","iata":"DLC-sky","city":"Dalian","country":"China","passengers":17503810,"geo":"38.9656982421875, 121.53900146484375"},
{"rank":135,"name":"Mehrabad International Airport","iata":"THR-sky","city":"Teheran","country":"Iran","passengers":17464216,"geo":"35.68920135498047, 51.31340026855469"},
{"rank":136,"name":"Geneva Airport","iata":"GVA-sky","city":"Geneva","country":"Switzerland","passengers":17351816,"geo":"46.23809814453125, 6.108950138092041"},
{"rank":137,"name":"Taoxian Airport","iata":"SHE-sky","city":"Shenyang","country":"China","passengers":17342626,"geo":"41.639801025390625, 123.48300170898438"},
{"rank":138,"name":"Rajiv Gandhi International Airport","iata":"HYD-sky","city":"Hyderabad","country":"India","passengers":17148069,"geo":"17.2313175201, 78.4298553467"},
{"rank":139,"name":"Presidente Juscelino Kubistschek International Airport","iata":"BSB-sky","city":"Brasilia","country":"Brazil","passengers":16912680,"geo":"-15.86916732788086, -47.920833587646484"},
{"rank":140,"name":"Phuket International Airport","iata":"HKT-sky","city":"Phuket","country":"Thailand","passengers":16855637,"geo":"8.1132, 98.316902"},
{"rank":141,"name":"Gimhae International Airport","iata":"PUS-sky","city":"Busan","country":"South Korea","passengers":16403541,"geo":"35.1795005798, 128.93800354"},
{"rank":142,"name":"Calgary International Airport","iata":"YYC-sky","city":"Calgary","country":"Canada","passengers":16275862,"geo":"51.113899231, -114.019996643"},
{"rank":143,"name":"Rio de Janeiro–Galeão International Airport","iata":"GIG-sky","city":"Rio De Janeiro","country":"Brazil","passengers":16243253,"geo":"-22.8099994659, -43.2505569458"},
{"rank":144,"name":"Pulkovo Airport","iata":"LED-sky","city":"St. Petersburg","country":"Russia","passengers":16125520,"geo":"59.80030059814453, 30.262500762939453"},
{"rank":145,"name":"Esenboğa International Airport","iata":"ESB-sky","city":"Ankara","country":"Turkey","passengers":15845878,"geo":"40.128101348899996, 32.995098114"},
{"rank":146,"name":"Luton Airport","iata":"LTN-sky","city":"London","country":"United Kingdom","passengers":15799219,"geo":"51.874698638916016, -0.36833301186561584"},
{"rank":147,"name":"Warsaw Chopin Airport","iata":"WAW-sky","city":"Warsaw","country":"Poland","passengers":15730330,"geo":"52.1656990051, 20.967100143399996"},
{"rank":148,"name":"Tocumen International Airport","iata":"PTY-sky","city":"Panama City","country":"Panama","passengers":15616065,"geo":"9.0713596344, -79.3834991455"},
{"rank":149,"name":"Dallas Love Field","iata":"DAL-sky","city":"Dallas","country":"United States","passengers":15562738,"geo":"32.847099, -96.851799"},
{"rank":150,"name":"Václav Havel Airport Prague","iata":"PRG-sky","city":"Prague","country":"Czech Republic","passengers":15415001,"geo":"50.1008, 14.26"},
{"rank":151,"name":"Lambert St Louis International Airport","iata":"STL-sky","city":"St. Louis","country":"United States","passengers":14730656,"geo":"38.748697, -90.370003"},
{"rank":152,"name":"Osaka International Airport","iata":"ITM-sky","city":"Osaka","country":"Japan","passengers":14541936,"geo":"34.785499572753906, 135.43800354003906"},
{"rank":153,"name":"Yaoqiang Airport","iata":"TNA-sky","city":"Jinan","country":"China","passengers":14319264,"geo":"36.857200622558594, 117.21600341796875"},
{"rank":154,"name":"Nashville International Airport","iata":"BNA-sky","city":"Nashville","country":"United States","passengers":14134448,"geo":"36.1245002746582, -86.6781997680664"},
{"rank":155,"name":"Nanning Wuxu Airport","iata":"NNG-sky","city":"Nanning","country":"China","passengers":13915542,"geo":"22.608299255371094, 108.1719970703125"},
{"rank":156,"name":"Austin Bergstrom International Airport","iata":"AUS-sky","city":"Austin","country":"United States","passengers":13889305,"geo":"30.2987223546, -97.6997852325"},
{"rank":157,"name":"Aeroparque Jorge Newbery","iata":"AEP-sky","city":"Buenos Aires","country":"Argentina","passengers":13797710,"geo":"-34.5592, -58.4156"},
{"rank":158,"name":"Perth International Airport","iata":"PER-sky","city":"Perth","country":"Australia","passengers":13759170,"geo":"-31.94029998779297, 115.96700286865234"},
{"rank":159,"name":"Alicante International Airport","iata":"ALC-sky","city":"Alicante","country":"Spain","passengers":13713061,"geo":"38.28219985961914, -0.5581560134887695"},
{"rank":160,"name":"William P Hobby Airport","iata":"HOU-sky","city":"Houston","country":"United States","passengers":13435672,"geo":"29.64539909, -95.27890015"},
{"rank":161,"name":"Edinburgh Airport","iata":"EDI-sky","city":"Edinburgh","country":"United Kingdom","passengers":13432485,"geo":"55.95000076293945, -3.372499942779541"},
{"rank":162,"name":"Nice-Côte d'Azur Airport","iata":"NCE-sky","city":"Nice","country":"France","passengers":13304782,"geo":"43.6584014893, 7.215869903560001"},
{"rank":163,"name":"Budapest Ferenc Liszt International Airport","iata":"BUD-sky","city":"Budapest","country":"Hungary","passengers":13097239,"geo":"47.42976, 19.261093"},
{"rank":164,"name":"Gran Canaria Airport","iata":"LPA-sky","city":"Gran Canaria","country":"Spain","passengers":13092117,"geo":"27.931900024414062, -15.38659954071045"},
{"rank":165,"name":"Metropolitan Oakland International Airport","iata":"OAK-sky","city":"Oakland","country":"United States","passengers":13072245,"geo":"37.721298, -122.221001"},
{"rank":166,"name":"Birmingham Airport","iata":"BHX-sky","city":"Birmingham","country":"United Kingdom","passengers":12983436,"geo":"52.453899383499994, -1.74802994728"},
{"rank":167,"name":"Taiyuan Wusu Airport","iata":"TYN-sky","city":"Taiyuan","country":"China","passengers":12980259,"geo":"37.74689865112305, 112.62799835205078"},
{"rank":168,"name":"Berlin-Schönefeld International Airport","iata":"SXF-sky","city":"Berlin","country":"Germany","passengers":12865315,"geo":"52.380001, 13.5225"},
{"rank":169,"name":"Adnan Menderes International Airport","iata":"ADB-sky","city":"Izmir","country":"Turkey","passengers":12823701,"geo":"38.2924003601, 27.156999588"},
{"rank":170,"name":"Lanzhou Zhongchuan Airport","iata":"LHW-sky","city":"Lanzhou","country":"China","passengers":12816443,"geo":"36.5152015686, 103.620002747"},
{"rank":171,"name":"Guadalajara International Airport","iata":"GDL-sky","city":"Guadalajara","country":"Mexico","passengers":12808000,"geo":"20.521799087524414, -103.31099700927734"},
{"rank":172,"name":"Henri Coandă International Airport","iata":"OTP-sky","city":"Bucharest","country":"Romania","passengers":12804191,"geo":"44.5711111, 26.085"},
{"rank":173,"name":"Norman Y. Mineta San Jose International Airport","iata":"SJC-sky","city":"San Jose","country":"United States","passengers":12480232,"geo":"37.362598, -121.929001"},
{"rank":174,"name":"Fuzhou Changle International Airport","iata":"FOC-sky","city":"Fuzhou","country":"China","passengers":12469235,"geo":"25.935100555419922, 119.66300201416016"},
{"rank":175,"name":"Cologne Bonn Airport","iata":"CGN-sky","city":"Cologne","country":"Germany","passengers":12384223,"geo":"50.8658981323, 7.1427397728"},
{"rank":176,"name":"Orio al Serio International Airport","iata":"BGY-sky","city":"Bergamo","country":"Italy","passengers":12336137,"geo":"45.673901, 9.70417"},
{"rank":177,"name":"Kualanamu International Airport","iata":"KNO-sky","city":"Medan","country":"Indonesia","passengers":12245116,"geo":"3.642222, 98.885278"},
{"rank":178,"name":"Louis Armstrong New Orleans International Airport","iata":"MSY-sky","city":"New Orleans","country":"United States","passengers":12009512,"geo":"29.99340057373047, -90.25800323486328"},
{"rank":179,"name":"Longjia Airport","iata":"CGQ-sky","city":"Changchun","country":"China","passengers":11662943,"geo":"43.9962005615, 125.684997559"},
{"rank":180,"name":"Hasanuddin International Airport","iata":"UPG-sky","city":"Ujung Pandang","country":"Indonesia","passengers":11653387,"geo":"-5.061629772186279, 119.55400085449219"},
{"rank":181,"name":"Raleigh–Durham International Airport","iata":"RDU-sky","city":"Raleigh","country":"United States","passengers":11653086,"geo":"35.877601623535156, -78.7874984741211"},
{"rank":182,"name":"Kansas City International Airport","iata":"MCI-sky","city":"Kansas City","country":"United States","passengers":11503936,"geo":"39.2976, -94.713898"},
{"rank":183,"name":"Sharjah International Airport","iata":"SHJ-sky","city":"Sharjah","country":"United Arab Emirates","passengers":11360000,"geo":"25.32859992980957, 55.5172004699707"},
{"rank":184,"name":"Tenerife South Airport","iata":"TFS-sky","city":"Tenerife","country":"Spain","passengers":11249327,"geo":"28.044500351, -16.5725002289"},
{"rank":185,"name":"Nanchang Changbei International Airport","iata":"KHN-sky","city":"Nanchang","country":"China","passengers":11212161,"geo":"28.864999771118164, 115.9000015258789"},
{"rank":186,"name":"Cairo International Airport","iata":"CAI-sky","city":"Cairo","country":"Egypt","passengers":11081892,"geo":"30.12190055847168, 31.40559959411621"},
{"rank":187,"name":"Baita International Airport","iata":"HET-sky","city":"Hohhot","country":"China","passengers":10969050,"geo":"40.851398, 111.823997"},
{"rank":188,"name":"Stuttgart Airport","iata":"STR-sky","city":"Stuttgart","country":"Germany","passengers":10962247,"geo":"48.689899444599995, 9.22196006775"},
{"rank":189,"name":"Sacramento International Airport","iata":"SMF-sky","city":"Sacramento","country":"United States","passengers":10912097,"geo":"38.69540023803711, -121.59100341796875"},
{"rank":190,"name":"Da Nang International Airport","iata":"DAD-sky","city":"Danang","country":"Vietnam","passengers":10860235,"geo":"16.043899536132812, 108.1989974975586"},
{"rank":191,"name":"Francisco de Sá Carneiro Airport","iata":"OPO-sky","city":"Porto","country":"Portugal","passengers":10787000,"geo":"41.2481002808, -8.68138980865"},
{"rank":192,"name":"Cape Town International Airport","iata":"CPT-sky","city":"Cape Town","country":"South Africa","passengers":10693063,"geo":"-33.9648017883, 18.6016998291"},
{"rank":193,"name":"Boryspil International Airport","iata":"KBP-sky","city":"Kiev","country":"Ukraine","passengers":10554757,"geo":"50.345001220703125, 30.894699096679688"},
{"rank":194,"name":"Shijiazhuang Daguocun International Airport","iata":"SJW-sky","city":"Shijiazhuang","country":"China","passengers":10528364,"geo":"38.28070068359375, 114.6969985961914"},
{"rank":195,"name":"Mashhad International Airport","iata":"MHD-sky","city":"Mashhad","country":"Iran","passengers":10459377,"geo":"36.235198974609375, 59.64099884033203"},
{"rank":196,"name":"John Wayne Airport-Orange County Airport","iata":"SNA-sky","city":"Santa Ana","country":"United States","passengers":10423578,"geo":"33.67570114, -117.8679962"},
{"rank":197,"name":"Venice Marco Polo Airport","iata":"VCE-sky","city":"Venice","country":"Italy","passengers":10371380,"geo":"45.505299, 12.3519"},
{"rank":198,"name":"Ministro Pistarini International Airport","iata":"EZE-sky","city":"Buenos Aires","country":"Argentina","passengers":10327203,"geo":"-34.8222, -58.5358"},
{"rank":199,"name":"Lyon Saint-Exupéry Airport","iata":"LYS-sky","city":"Lyon","country":"France","passengers":10280192,"geo":"45.725556, 5.081111"},
{"rank":200,"name":"Cochin International Airport","iata":"COK-sky","city":"Kochi","country":"India","passengers":10274598,"geo":"10.152, 76.401901"},
{"rank":201,"name":"Chiang Mai International Airport","iata":"CNX-sky","city":"Chiang Mai","country":"Thailand","passengers":10230070,"geo":"18.766799926799997, 98.962600708"},
{"rank":202,"name":"Chubu Centrair International Airport","iata":"NGO-sky","city":"Nagoya","country":"Japan","passengers":10177713,"geo":"34.8583984375, 136.80499267578125"},
{"rank":203,"name":"Tancredo Neves International Airport","iata":"CNF-sky","city":"Belo Horizonte","country":"Brazil","passengers":10164077,"geo":"-19.62444305419922, -43.97194290161133"},
{"rank":204,"name":"Mactan Cebu International Airport","iata":"CEB-sky","city":"Cebu","country":"Philippines","passengers":10050940,"geo":"10.307499885559, 123.97899627686"},
{"rank":205,"name":"Glasgow Airport","iata":"GLA-sky","city":"Glasgow","country":"United Kingdom","passengers":9897825,"geo":"55.8718986511, -4.43306016922"},
{"rank":206,"name":"Monterrey International Airport","iata":"MTY-sky","city":"Monterrey","country":"Mexico","passengers":9771630,"geo":"25.7784996033, -100.107002258"},
{"rank":207,"name":"Hefei Luogang International Airport","iata":"HFE-sky","city":"Hefei","country":"China","passengers":9690716,"geo":"31.780000686645508, 117.2979965209961"},
{"rank":208,"name":"Milano Linate Airport","iata":"LIN-sky","city":"Milano","country":"Italy","passengers":9548363,"geo":"45.445099, 9.27674"},
{"rank":209,"name":"Zhuhai Jinwan Airport","iata":"ZUH-sky","city":"Zhuhai","country":"China","passengers":9425951,"geo":"22.006399, 113.375999"},
{"rank":210,"name":"Ningbo Lishe International Airport","iata":"NGB-sky","city":"Ninbo","country":"China","passengers":9390527,"geo":"29.82670021057129, 121.46199798583984"},
{"rank":211,"name":"Mohammed V International Airport","iata":"CMN-sky","city":"Casablanca","country":"Morocco","passengers":9357427,"geo":"33.36750030517578, -7.589970111846924"},
{"rank":212,"name":"Viracopos International Airport","iata":"VCP-sky","city":"Campinas","country":"Brazil","passengers":9332631,"geo":"-23.0074005127, -47.1344985962"},
{"rank":213,"name":"Wenzhou Yongqiang Airport","iata":"WNZ-sky","city":"Wenzhou","country":"China","passengers":9285621,"geo":"27.912201, 120.851997"},
{"rank":214,"name":"Toulouse-Blagnac Airport","iata":"TLS-sky","city":"Toulouse","country":"France","passengers":9264611,"geo":"43.629101, 1.36382"},
{"rank":215,"name":"Santos Dumont Airport","iata":"SDU-sky","city":"Rio De Janeiro","country":"Brazil","passengers":9247185,"geo":"-22.910499572799996, -43.1631011963"},
{"rank":216,"name":"Cleveland Hopkins International Airport","iata":"CLE-sky","city":"Cleveland","country":"United States","passengers":9140445,"geo":"41.4117012024, -81.8498001099"},
{"rank":217,"name":"Catania-Fontanarossa Airport","iata":"CTA-sky","city":"Catania","country":"Italy","passengers":9120913,"geo":"37.466801, 15.0664"},
{"rank":218,"name":"San Antonio International Airport","iata":"SAT-sky","city":"San Antonio","country":"United States","passengers":9050000,"geo":"29.533700942993164, -98.46980285644531"},
{"rank":219,"name":"Marseille Provence Airport","iata":"MRS-sky","city":"Marseille","country":"France","passengers":9002086,"geo":"43.439271922, 5.22142410278"},
{"rank":220,"name":"Pittsburgh International Airport","iata":"PIT-sky","city":"Pittsburgh","country":"United States","passengers":8988016,"geo":"40.49150085, -80.23290253"},
{"rank":221,"name":"Addis Ababa Bole International Airport","iata":"ADD-sky","city":"Addis Ababa","country":"Ethiopia","passengers":8900000,"geo":"8.97789001465, 38.799301147499996"},
{"rank":222,"name":"Imam Khomeini International Airport","iata":"IKA-sky","city":"Tehran","country":"Iran","passengers":8852232,"geo":"35.416099548339844, 51.152198791503906"},
{"rank":223,"name":"Southwest Florida International Airport","iata":"RSW-sky","city":"Fort Myers","country":"United States","passengers":8842549,"geo":"26.53619956970215, -81.75520324707031"},
{"rank":224,"name":"Indianapolis International Airport","iata":"IND-sky","city":"Indianapolis","country":"United States","passengers":8770308,"geo":"39.7173, -86.294403"},
{"rank":225,"name":"Faro Airport","iata":"FAO-sky","city":"Faro","country":"Portugal","passengers":8727000,"geo":"37.0144004822, -7.96590995789"},
{"rank":226,"name":"Adi Sutjipto International Airport","iata":"JOG-sky","city":"Yogyakarta","country":"Indonesia","passengers":8634369,"geo":"-7.788179874420166, 110.43199920654297"},
{"rank":227,"name":"Yinchuan Airport","iata":"INC-sky","city":"Yinchuan","country":"China","passengers":8505613,"geo":"38.322758, 106.393214"},
{"rank":228,"name":"Keflavík International Airport","iata":"KEF-sky","city":"Keflavik","country":"Iceland","passengers":8260949,"geo":"63.985000610352, -22.605600357056"},
{"rank":229,"name":"Bologna Guglielmo Marconi Airport","iata":"BLQ-sky","city":"Bologna","country":"Italy","passengers":8198156,"geo":"44.5354, 11.2887"},
{"rank":230,"name":"Naples International Airport","iata":"NAP-sky","city":"Naples","country":"Italy","passengers":8134492,"geo":"40.886002, 14.2908"},
{"rank":231,"name":"Bristol Airport","iata":"BRS-sky","city":"Bristol","country":"United Kingdom","passengers":8100000,"geo":"51.382702, -2.71909"},
{"rank":232,"name":"Adelaide International Airport","iata":"ADL-sky","city":"Adelaide","country":"Australia","passengers":8090000,"geo":"-34.945, 138.531006"},
{"rank":233,"name":"Salgado Filho Airport","iata":"POA-sky","city":"Porto Alegre","country":"Brazil","passengers":8012114,"geo":"-29.994400024414062, -51.1713981628418"},
{"rank":234,"name":"Kota Kinabalu International Airport","iata":"BKI-sky","city":"Kota Kinabalu","country":"Malaysia","passengers":8006446,"geo":"5.9372100830078125, 116.0510025024414"},
{"rank":235,"name":"Halim Perdanakusuma International Airport","iata":"HLP-sky","city":"Jakarta","country":"Indonesia","passengers":7934520,"geo":"-6.266610145568848, 106.89099884033203"},
{"rank":236,"name":"Ibiza Airport","iata":"IBZ-sky","city":"Ibiza","country":"Spain","passengers":7903892,"geo":"38.872898101800004, 1.3731199502899998"},
{"rank":237,"name":"EuroAirport Basel-Mulhouse-Freiburg Airport","iata":"BSL-sky","city":"Mulhouse","country":"France","passengers":7888725,"geo":"47.59, 7.5291667"},
{"rank":238,"name":"Guilin Liangjiang International Airport","iata":"KWL-sky","city":"Guilin","country":"China","passengers":7862015,"geo":"25.21809959411621, 110.03900146484375"},
{"rank":239,"name":"Cincinnati Northern Kentucky International Airport","iata":"CVG-sky","city":"Cincinnati","country":"United States","passengers":7842149,"geo":"39.0488014221, -84.6678009033"},
{"rank":240,"name":"Pune Airport","iata":"PNQ-sky","city":"Pune","country":"India","passengers":7837331,"geo":"18.58209991455078, 73.9197006225586"},
{"rank":241,"name":"Edmonton International Airport","iata":"YEG-sky","city":"Edmonton","country":"Canada","passengers":7807384,"geo":"53.309700012200004, -113.580001831"},
{"rank":242,"name":"Guararapes - Gilberto Freyre International Airport","iata":"REC-sky","city":"Recife","country":"Brazil","passengers":7776881,"geo":"-8.126489639282227, -34.92359924316406"},
{"rank":243,"name":"Deputado Luís Eduardo Magalhães International Airport","iata":"SSA-sky","city":"Salvador","country":"Brazil","passengers":7735685,"geo":"-12.9086112976, -38.3224983215"},
{"rank":244,"name":"Brussels South Charleroi Airport","iata":"CRL-sky","city":"Charleroi","country":"Belgium","passengers":7698767,"geo":"50.459202, 4.45382"},
{"rank":245,"name":"Sultan Aji Muhamad Sulaiman Airport","iata":"BPN-sky","city":"Balikpapan","country":"Indonesia","passengers":7510090,"geo":"-1.26827001572, 116.893997192"},
{"rank":246,"name":"Houari Boumediene Airport","iata":"ALG-sky","city":"Algier","country":"Algeria","passengers":7500000,"geo":"36.691001892089844, 3.215409994125366"},
{"rank":247,"name":"Port Columbus International Airport","iata":"CMH-sky","city":"Columbus","country":"United States","passengers":7500000,"geo":"39.998001, -82.891899"},
{"rank":248,"name":"Heraklion International Airport","iata":"HER-sky","city":"Heraklion","country":"Greece","passengers":7480408,"geo":"35.3396987915, 25.180299758900002"},
{"rank":249,"name":"Sardar Vallabhbhai Patel International Airport","iata":"AMD-sky","city":"Ahmedabad","country":"India","passengers":7405282,"geo":"23.0771999359, 72.63469696039999"},
{"rank":250,"name":"Lanzarote Airport","iata":"ACE-sky","city":"Arrecife","country":"Spain","passengers":7389025,"geo":"28.945499, -13.6052"},
{"rank":251,"name":"Penang International Airport","iata":"PEN-sky","city":"Penang","country":"Malaysia","passengers":7232097,"geo":"5.297140121459961, 100.2770004272461"},
{"rank":252,"name":"Lijiang Airport","iata":"LJG-sky","city":"Lijiang","country":"China","passengers":7105345,"geo":"26.6800003052, 100.246002197"},
{"rank":253,"name":"General Abelardo L. Rodríguez International Airport","iata":"TIJ-sky","city":"Tijuana","country":"Mexico","passengers":7103200,"geo":"32.541099548339844, -116.97000122070312"},
{"rank":254,"name":"Jomo Kenyatta International Airport","iata":"NBO-sky","city":"Nairobi","country":"Kenya","passengers":7039175,"geo":"-1.31923997402, 36.9277992249"},
{"rank":255,"name":"Goa International Airport","iata":"GOI-sky","city":"Goa","country":"India","passengers":6876491,"geo":"15.3808002472, 73.8313980103"},
{"rank":256,"name":"Göteborg Landvetter Airport","iata":"GOT-sky","city":"Gothenborg","country":"Sweden","passengers":6758520,"geo":"57.662799835205, 12.279800415039"},
{"rank":257,"name":"Valencia Airport","iata":"VLC-sky","city":"Valencia","country":"Spain","passengers":6745394,"geo":"39.4893, -0.481625"},
{"rank":258,"name":"Afonso Pena Airport","iata":"CWB-sky","city":"Curitiba","country":"Brazil","passengers":6722058,"geo":"-25.5284996033, -49.1758003235"},
{"rank":259,"name":"Sunan Shuofang International Airport","iata":"WUX-sky","city":"Wuxi","country":"China","passengers":6683380,"geo":"31.494400024399997, 120.429000854"},
{"rank":260,"name":"Christchurch International Airport","iata":"CHC-sky","city":"Christchurch","country":"New Zealand","passengers":6566598,"geo":"-43.48939895629883, 172.53199768066406"},
{"rank":261,"name":"Yantai Laishan Airport","iata":"YNT-sky","city":"Yantai","country":"China","passengers":6503015,"geo":"37.40169906616211, 121.37200164794922"},
{"rank":262,"name":"Sofia Airport","iata":"SOF-sky","city":"Sofia","country":"Bulgaria","passengers":6206400,"geo":"42.696693420410156, 23.411436080932617"},
{"rank":263,"name":"Kaohsiung International Airport","iata":"KHH-sky","city":"Kaohsiung","country":"Taiwan","passengers":6472085,"geo":"22.57710075378418, 120.3499984741211"},
{"rank":264,"name":"Gold Coast Airport","iata":"OOL-sky","city":"Coolangatta","country":"Australia","passengers":6457086,"geo":"-28.1644001007, 153.505004883"},
{"rank":265,"name":"Bradley International Airport","iata":"BDL-sky","city":"Windsor Locks","country":"United States","passengers":6436407,"geo":"41.9388999939, -72.68319702149999"},
{"rank":"266;","name":"Thessaloniki Airport \"\"Makedonia\"\"","iata":"SKG-sky","city":"Thessaloniki","country":"Greece","passengers":6395523,"geo":"40.51969909667969, 22.97089958190918"},
{"rank":267,"name":"Murtala Muhammed International Airport","iata":"LOS-sky","city":"Lagos","country":"Nigeria","passengers":6367478,"geo":"6.5773701667785645, 3.321160078048706"},
{"rank":268,"name":"Hang Nadim International Airport","iata":"BTH-sky","city":"Batam","country":"Indonesia","passengers":6355113,"geo":"1.12102997303, 104.119003296"},
{"rank":269,"name":"Palm Beach International Airport","iata":"PBI-sky","city":"West Palm Beach","country":"United States","passengers":6322452,"geo":"26.68320083618164, -80.09559631347656"},
{"rank":270,"name":"Prince Mohammad Bin Abdulaziz Airport","iata":"MED-sky","city":"Madinah","country":"Saudi Arabia","passengers":6300638,"geo":"24.5534, 39.705101"},
{"rank":271,"name":"Bordeaux-Mérignac Airport","iata":"BOD-sky","city":"Bordeaux","country":"France","passengers":6203824,"geo":"44.828300476100004, -0.715556025505"},
{"rank":272,"name":"Taipei Songshan Airport","iata":"TSA-sky","city":"Taipei","country":"Taiwan","passengers":6143445,"geo":"25.069400787353516, 121.552001953125"},
{"rank":273,"name":"Quanzhou Jinjiang International Airport","iata":"JJN-sky","city":"Quanzhou","country":"China","passengers":6118876,"geo":"24.7964, 118.589996"},
{"rank":275,"name":"Riga International Airport","iata":"RIX-sky","city":"Riga","country":"Latvia","passengers":6097765,"geo":"56.92359924316406, 23.971099853515625"},
{"rank":276,"name":"Fuerteventura Airport","iata":"FUE-sky","city":"Fuerteventura","country":"Spain","passengers":6049401,"geo":"28.452699661254883, -13.863800048828125"},
{"rank":277,"name":"Wellington International Airport","iata":"WLG-sky","city":"Wellington","country":"New Zealand","passengers":6049194,"geo":"-41.3272018433, 174.804992676"},
{"rank":278,"name":"Malta International Airport","iata":"MLA-sky","city":"Malta","country":"Malta","passengers":6014548,"geo":"35.857498, 14.4775"},
{"rank":279,"name":"Beijing Nanyuan Airport","iata":"NAY-sky","city":"Beijing","country":"China","passengers":5946886,"geo":"39.782798767089844, 116.38800048828125"},
{"rank":280,"name":"Pinto Martins International Airport","iata":"FOR-sky","city":"Fortaleza","country":"Brazil","passengers":5935288,"geo":"-3.776279926300049, -38.53260040283203"},
{"rank":281,"name":"Yangon International Airport","iata":"RGN-sky","city":"Yangon","country":"Burma","passengers":5916597,"geo":"16.907300949099998, 96.1332015991"},
{"rank":282,"name":"Ciampino–G. B. Pastine International Airport","iata":"CIA-sky","city":"Rome","country":"Italy","passengers":5885812,"geo":"41.7994, 12.5949"},
{"rank":283,"name":"Hannover Airport","iata":"HAJ-sky","city":"Hannover","country":"Germany","passengers":5870104,"geo":"52.461101532, 9.685079574580001"},
{"rank":284,"name":"Belfast International Airport","iata":"BFS-sky","city":"Belfast","country":"United Kingdom","passengers":5844000,"geo":"54.6575012207, -6.2158298492399995"},
{"rank":285,"name":"John Paul II International Airport Kraków–Balice","iata":"KRK-sky","city":"Krakow","country":"Poland","passengers":5835189,"geo":"50.077702, 19.7848"},
{"rank":286,"name":"Falcone–Borsellino Airport","iata":"PMO-sky","city":"Palermo","country":"Italy","passengers":5775274,"geo":"38.175999, 13.091"},
{"rank":287,"name":"José Martí International Airport","iata":"HAV-sky","city":"Havana","country":"Cuba","passengers":5713859,"geo":"22.989200592041016, -82.40910339355469"},
{"rank":288,"name":"Sochi International Airport","iata":"AER-sky","city":"Sochi","country":"Russia","passengers":5691822,"geo":"43.449902, 39.9566"},
{"rank":289,"name":"Tunis Carthage International Airport","iata":"TUN-sky","city":"Tunis","country":"Tunisia","passengers":5691037,"geo":"36.85100173950195, 10.22719955444336"},
{"rank":290,"name":"Sultan Mahmud Badaruddin II Airport","iata":"PLM-sky","city":"Palembang","country":"Indonesia","passengers":5677234,"geo":"-2.8982501029968, 104.69999694824"},
{"rank":291,"name":"Eindhoven Airport","iata":"EIN-sky","city":"Eindhoven","country":"Netherlands","passengers":5653402,"geo":"51.4500999451, 5.37452983856"},
{"rank":292,"name":"Xining Caojiabu Airport","iata":"XNN-sky","city":"Xining","country":"China","passengers":5627696,"geo":"36.5275, 102.042999"},
{"rank":293,"name":"Adana Airport","iata":"ADA-sky","city":"Adana","country":"Turkey","passengers":5594630,"geo":"36.9822006226, 35.280399322499996"},
{"rank":294,"name":"Jacksonville International Airport","iata":"JAX-sky","city":"Jacksonville","country":"United States","passengers":5591886,"geo":"30.49410057067871, -81.68789672851562"},
{"rank":295,"name":"King Shaka International Airport","iata":"DUR-sky","city":"Durban","country":"South Africa","passengers":5527747,"geo":"-29.6144444444, 31.1197222222"},
{"rank":296,"name":"Nantes Atlantique Airport","iata":"NTE-sky","city":"Nantes","country":"France","passengers":5489899,"geo":"47.153198242200006, -1.61073005199"},
{"rank":297,"name":"Koltsovo Airport","iata":"SVX-sky","city":"Yekaterinburg","country":"Russia","passengers":5404000,"geo":"56.743099212646, 60.802700042725"},
{"rank":298,"name":"Newcastle Airport","iata":"NCL-sky","city":"Newcastle","country":"United Kingdom","passengers":5349751,"geo":"55.037498474121094, -1.6916699409484863"},
{"rank":299,"name":"Belgrade Nikola Tesla Airport","iata":"BEG-sky","city":"Belgrade","country":"Serbia","passengers":5343420,"geo":"44.8184013367, 20.3090991974"},
{"rank":300,"name":"Rhodes International Airport","iata":"RHO-sky","city":"Rhodos","country":"Greece","passengers":5301517,"geo":"36.405399322509766, 28.086200714111328"},
{"rank":301,"name":"Pisa International Airport","iata":"PSA-sky","city":"Pisa","country":"Italy","passengers":5233118,"geo":"43.683899, 10.3927"},
{"rank":302,"name":"Kagoshima Airport","iata":"KOJ-sky","city":"Kagoshima","country":"Japan","passengers":5220710,"geo":"31.80340003967285, 130.718994140625"},
{"rank":303,"name":"Simferopol International Airport","iata":"SIP-sky","city":"Simferopol","country":"Ukraine","passengers":5128738,"geo":"45.05220031738281, 33.975101470947266"},
{"rank":304,"name":"Sevilla Airport","iata":"SVQ-sky","city":"Sevilla","country":"Spain","passengers":5108807,"geo":"37.417999267578125, -5.8931097984313965"},
{"rank":305,"name":"Kuching International Airport","iata":"KCH-sky","city":"Kuching","country":"Malaysia","passengers":5095193,"geo":"1.4846999645233154, 110.34700012207031"},
{"rank":306,"name":"Tolmachevo Airport","iata":"OVB-sky","city":"Novosibirsk","country":"Russia","passengers":5007302,"geo":"55.012599945068, 82.650703430176"},
{"rank":307,"name":"Bilbao Airport","iata":"BIO-sky","city":"Bilbao","country":"Spain","passengers":4973712,"geo":"43.30110168457031, -2.9106099605560303"},
{"rank":308,"name":"Ted Stevens Anchorage International Airport","iata":"ANC-sky","city":"Anchorage","country":"United States","passengers":4966000,"geo":"61.174400329589844, -149.99600219726562"},
{"rank":309,"name":"Albuquerque International Sunport Airport","iata":"ABQ-sky","city":"Albuquerque","country":"United States","passengers":4958417,"geo":"35.040199, -106.609001"},
{"rank":310,"name":"Liverpool John Lennon Airport","iata":"LPL-sky","city":"Liverpool","country":"United Kingdom","passengers":4950000,"geo":"53.33359909057617, -2.849720001220703"},
{"rank":311,"name":"Cairns International Airport","iata":"CNS-sky","city":"Cairns","country":"Australia","passengers":4898189,"geo":"-16.885799408, 145.755004883"},
{"rank":312,"name":"East Midlands Airport","iata":"EMA-sky","city":"East Midlands","country":"United Kingdom","passengers":4875791,"geo":"52.8311004639, -1.32806003094"},
{"rank":313,"name":"Cam Ranh Airport","iata":"CXR-sky","city":"Nha Trang","country":"Vietnam","passengers":4858362,"geo":"11.998200416564941, 109.21900177001953"},
{"rank":314,"name":"Jieyang Chaoshan International Airport","iata":"SWA-sky","city":"Shantou","country":"China","passengers":4851015,"geo":"23.552, 116.5033"},
{"rank":315,"name":"Ottawa Macdonald–Cartier International Airport","iata":"YOW-sky","city":"Ottawa","country":"Canada","passengers":4839677,"geo":"45.3224983215332, -75.66919708251953"},
{"rank":316,"name":"Buffalo Niagara International Airport","iata":"BUF-sky","city":"Buffalo","country":"United States","passengers":4726000,"geo":"42.94049835, -78.73220062"},
{"rank":317,"name":"Tenerife Norte Airport","iata":"TFN-sky","city":"Santa Cruz de Tenerife","country":"Spain","passengers":4704863,"geo":"28.4827003479, -16.3414993286"},
{"rank":318,"name":"Bari Karol Wojtyła Airport","iata":"BRI-sky","city":"Bari","country":"Italy","passengers":4686016,"geo":"41.138901, 16.760599"},
{"rank":319,"name":"Eppley Airfield","iata":"OMA-sky","city":"Omaha","country":"United States","passengers":4611906,"geo":"41.3032, -95.894096"},
{"rank":320,"name":"Gdańsk Lech Wałęsa Airport","iata":"GDN-sky","city":"Gdansk","country":"Poland","passengers":4611714,"geo":"54.377601623535156, 18.46619987487793"},
{"rank":321,"name":"London City Airport","iata":"LCY-sky","city":"London","country":"United Kingdom","passengers":4530439,"geo":"51.505299, 0.055278"},
{"rank":322,"name":"Sultan Syarif Kasim Ii (Simpang Tiga) Airport","iata":"PKU-sky","city":"Pekanbaru","country":"Indonesia","passengers":4465977,"geo":"0.46078601479530334, 101.44499969482422"},
{"rank":323,"name":"Trondheim Airport Værnes","iata":"TRD-sky","city":"Trondheim","country":"Norway","passengers":4427733,"geo":"63.4578018, 10.9239998"},
{"rank":324,"name":"Dalaman International Airport","iata":"DLM-sky","city":"Dalaman","country":"Turkey","passengers":4377101,"geo":"36.7131004333, 28.7924995422"},
{"rank":325,"name":"Juan Santamaria International Airport","iata":"SJO-sky","city":"San Jose","country":"Costa Rica","passengers":4369333,"geo":"9.993860244750977, -84.20880126953125"},
{"rank":326,"name":"Hat Yai International Airport","iata":"HDY-sky","city":"Hat Yai","country":"Thailand","passengers":4367364,"geo":"6.93320989609, 100.392997742"},
{"rank":327,"name":"Menara Airport","iata":"RAK-sky","city":"Marrakech","country":"Morocco","passengers":4359865,"geo":"31.606899261499997, -8.03629970551"},
{"rank":328,"name":"Jaipur International Airport","iata":"JAI-sky","city":"Jaipur","country":"India","passengers":4345927,"geo":"26.8242, 75.812202"},
{"rank":329,"name":"Winnipeg James Armstrong Richardson International Airport","iata":"YWG-sky","city":"Winnipeg","country":"Canada","passengers":4305744,"geo":"49.909999847399995, -97.2398986816"},
{"rank":330,"name":"Chaudhary Charan Singh International Airport","iata":"LKO-sky","city":"Lucknow","country":"India","passengers":4272024,"geo":"26.7605991364, 80.8892974854"},
{"rank":331,"name":"Lokpriya Gopinath Bordoloi International Airport","iata":"GAU-sky","city":"Guwahati","country":"India","passengers":4237474,"geo":"26.10610008239746, 91.58589935302734"},
{"rank":332,"name":"Achmad Yani Airport","iata":"SRG-sky","city":"Semarang","country":"Indonesia","passengers":4224295,"geo":"-6.97273, 110.375"},
{"rank":333,"name":"Ontario International Airport","iata":"ONT-sky","city":"Ontario","country":"United States","passengers":4217366,"geo":"34.055999755859375, -117.60099792480469"},
{"rank":334,"name":"Nuremberg Airport","iata":"NUE-sky","city":"Nuernberg","country":"Germany","passengers":4186961,"geo":"49.498699, 11.078056"},
{"rank":335,"name":"Stavanger Airport Sola","iata":"SVG-sky","city":"Stavanger","country":"Norway","passengers":4177673,"geo":"58.876701354, 5.6377801895"},
{"rank":336,"name":"Maturín Airport","iata":"MUN-sky","city":"Maturin","country":"Venezuela","passengers":4176556,"geo":"9.75452995300293, -63.14739990234375"},
{"rank":337,"name":"Cagliari Elmas Airport","iata":"CAG-sky","city":"Cagliari","country":"Italy","passengers":4157612,"geo":"39.251499, 9.05428"},
{"rank":338,"name":"Minsk National Airport","iata":"MSQ-sky","city":"Minsk","country":"Belarus","passengers":4114512,"geo":"53.882499694824, 28.030700683594"},
{"rank":339,"name":"Halifax Stanfield International Airport","iata":"YHZ-sky","city":"Halifax","country":"Canada","passengers":4083188,"geo":"44.8807983398, -63.5085983276"},
{"rank":340,"name":"Krabi Airport","iata":"KBV-sky","city":"Krabi","country":"Thailand","passengers":4079564,"geo":"8.09912014008, 98.9861984253"},
{"rank":341,"name":"Leeds Bradford Airport","iata":"LBA-sky","city":"Leeds","country":"United Kingdom","passengers":4074500,"geo":"53.86589813232422, -1.6605700254440308"},
{"rank":342,"name":"Hurghada International Airport","iata":"HRG-sky","city":"Hurghada","country":"Egypt","passengers":4027291,"geo":"27.178300857543945, 33.799400329589844"},
{"rank":343,"name":"Trivandrum International Airport","iata":"TRV-sky","city":"Trivandrum","country":"India","passengers":4018095,"geo":"8.48211956024, 76.9200973511"},
{"rank":344,"name":"Xishuangbanna Gasa Airport","iata":"JHG-sky","city":"Jinghonggasa","country":"China","passengers":3990867,"geo":"21.973899841308594, 100.76000213623047"},
{"rank":345,"name":"T. F. Green Airport","iata":"PVD-sky","city":"Providence","country":"United States","passengers":3937947,"geo":"41.732601, -71.420403"},
{"rank":346,"name":"Tabing Airport","iata":"PDG-sky","city":"Padang","country":"Indonesia","passengers":3937251,"geo":"-0.786917, 100.280998"},
{"rank":347,"name":"Katowice International Airport","iata":"KTW-sky","city":"Katowice","country":"Poland","passengers":3892941,"geo":"50.4743, 19.08"},
{"rank":348,"name":"Milas Bodrum International Airport","iata":"BJV-sky","city":"Bodrum","country":"Turkey","passengers":3877603,"geo":"37.25059890749999, 27.6643009186"},
{"rank":349,"name":"Hercílio Luz International Airport","iata":"FLN-sky","city":"Florianopolis","country":"Brazil","passengers":3843328,"geo":"-27.670278549194336, -48.5525016784668"},
{"rank":350,"name":"Monastir Habib Bourguiba International Airport","iata":"MIR-sky","city":"Monastir","country":"Tunisia","passengers":3831924,"geo":"35.75809860229492, 10.75469970703125"},
{"rank":351,"name":"Lhasa Gonggar Airport","iata":"LXA-sky","city":"Lhasa","country":"China","passengers":3718350,"geo":"29.2978000641, 90.91190338130001"},
{"rank":352,"name":"Husein Sastranegara International Airport","iata":"BDO-sky","city":"Bandung","country":"Indonesia","passengers":3696175,"geo":"-6.900629997253418, 107.57599639892578"},
{"rank":353,"name":"Lombok International Airport","iata":"LOP-sky","city":"Praya","country":"Indonesia","passengers":3677477,"geo":"-8.757322, 116.276675"},
{"rank":354,"name":"Sam Ratulangi Airport","iata":"MDC-sky","city":"Manado","country":"Indonesia","passengers":3671997,"geo":"1.5492600202560425, 124.9260025024414"},
{"rank":355,"name":"Syamsudin Noor Airport","iata":"BDJ-sky","city":"Banjarmasin","country":"Indonesia","passengers":3613473,"geo":"-3.4423599243164062, 114.76300048828125"},
{"rank":356,"name":"Sir Seewoosagur Ramgoolam International Airport","iata":"MRU-sky","city":"Plaisance","country":"Mauritius","passengers":3588777,"geo":"-20.430201, 57.683601"},
{"rank":357,"name":"Daegu Airport","iata":"TAE-sky","city":"Taegu","country":"South Korea","passengers":3560124,"geo":"35.896872, 128.65531"},
{"rank":358,"name":"Francisco Bangoy International Airport","iata":"DVO-sky","city":"Davao","country":"Philippines","passengers":3553201,"geo":"7.1255202293396, 125.64600372314453"},
{"rank":359,"name":"Mianyang Airport","iata":"MIG-sky","city":"Mianyang","country":"China","passengers":3543403,"geo":"31.4281005859375, 104.74099731445312"},
{"rank":360,"name":"Shiraz Shahid Dastghaib International Airport","iata":"SYZ-sky","city":"Shiraz","country":"Iran","passengers":3530525,"geo":"29.539199829101562, 52.58980178833008"},
{"rank":361,"name":"Krasnodar Pashkovsky International Airport","iata":"KRR-sky","city":"Krasnodar","country":"Russia","passengers":3498126,"geo":"45.034698486328, 39.170501708984"},
{"rank":362,"name":"Nnamdi Azikiwe International Airport","iata":"ABV-sky","city":"Abuja","country":"Nigeria","passengers":3462830,"geo":"9.006790161132812, 7.263169765472412"},
{"rank":363,"name":"Supadio Airport","iata":"PNK-sky","city":"Pontianak","country":"Indonesia","passengers":3447254,"geo":"-0.15071099996566772, 109.40399932861328"},
{"rank":364,"name":"Menorca Airport","iata":"MAH-sky","city":"Menorca","country":"Spain","passengers":3434615,"geo":"39.86259841918945, 4.218649864196777"},
{"rank":365,"name":"Trabzon International Airport","iata":"TZX-sky","city":"Trabzon","country":"Turkey","passengers":3361450,"geo":"40.99509811401367, 39.78969955444336"},
{"rank":366,"name":"General Mitchell International Airport","iata":"MKE-sky","city":"Milwaukee","country":"United States","passengers":3350000,"geo":"42.947200775146484, -87.89659881591797"},
{"rank":367,"name":"Val de Cans International Airport","iata":"BEL-sky","city":"Belem","country":"Brazil","passengers":3311817,"geo":"-1.3792500495900002, -48.4762992859"},
{"rank":368,"name":"Kumamoto Airport","iata":"KMJ-sky","city":"Kumamoto","country":"Japan","passengers":3241633,"geo":"32.83729934692383, 130.85499572753906"},
{"rank":369,"name":"Alejandro Velasco Astete International Airport","iata":"CUZ-sky","city":"Cuzco","country":"Peru","passengers":3209153,"geo":"-13.535699844400002, -71.9387969971"},
{"rank":370,"name":"Cristiano Ronaldo International Airport","iata":"FNC-sky","city":"Funchal","country":"Portugal","passengers":3200000,"geo":"32.697899, -16.7745"},
{"rank":371,"name":"Tbilisi International Airport","iata":"TBS-sky","city":"Tbilisi","country":"Georgia","passengers":3164139,"geo":"41.6692008972, 44.95470047"},
{"rank":372,"name":"Sendai Airport","iata":"SDJ-sky","city":"Sendai","country":"Japan","passengers":3152569,"geo":"38.1397018433, 140.917007446"},
{"rank":373,"name":"Senai International Airport","iata":"JHB-sky","city":"Johor Bahru","country":"Malaysia","passengers":3124799,"geo":"1.64131, 103.669998"},
{"rank":374,"name":"Nagasaki Airport","iata":"NGS-sky","city":"Nagasaki","country":"Japan","passengers":3110686,"geo":"32.916900634799994, 129.914001465"},
{"rank":375,"name":"Zagreb Airport","iata":"ZAG-sky","city":"Zagreb","country":"Croatia","passengers":3092047,"geo":"45.7429008484, 16.0687999725"},
{"rank":376,"name":"Kona International At Keahole Airport","iata":"KOA-sky","city":"Kona","country":"United States","passengers":3088641,"geo":"19.738783, -156.045603"},
{"rank":377,"name":"Santa Genoveva Airport","iata":"GYN-sky","city":"Goiania","country":"Brazil","passengers":3088274,"geo":"-16.631999969482422, -49.220699310302734"},
{"rank":378,"name":"Eurico de Aguiar Salles Airport","iata":"VIX-sky","city":"Vitoria","country":"Brazil","passengers":3021949,"geo":"-20.258057, -40.286388"},
{"rank":379,"name":"Luxembourg Airport","iata":"LUX-sky","city":"Luxemburg","country":"Luxembourg","passengers":3020000,"geo":"49.6233333, 6.2044444"},
{"rank":380,"name":"Phu Quoc International Airport","iata":"PQC-sky","city":"Phuquoc","country":"Vietnam","passengers":3000000,"geo":"10.1698, 103.9931"},
{"rank":381,"name":"Canberra International Airport","iata":"CBR-sky","city":"Canberra","country":"Australia","passengers":2995470,"geo":"-35.30690002441406, 149.19500732421875"},
{"rank":382,"name":"El Salvador International Airport","iata":"SAL-sky","city":"San Salvador","country":"El Salvador","passengers":2984764,"geo":"13.4409, -89.055702"},
{"rank":383,"name":"Miyazaki Airport","iata":"KMI-sky","city":"Miyazaki","country":"Japan","passengers":2976563,"geo":"31.877199173, 131.449005127"},
{"rank":384,"name":"Ahwaz International Airport","iata":"AWZ-sky","city":"Ahwaz","country":"Iran","passengers":2939958,"geo":"31.337400436399996, 48.7620010376"},
{"rank":385,"name":"Kish International Airport","iata":"KIH-sky","city":"Kish Island","country":"Iran","passengers":2926752,"geo":"26.5261993408, 53.980201721200004"},
{"rank":386,"name":"Biju Patnaik Airport","iata":"BBI-sky","city":"Bhubaneswar","country":"India","passengers":2907867,"geo":"20.244400024399997, 85.8178024292"},
{"rank":387,"name":"Calicut International Airport","iata":"CCJ-sky","city":"Calicut","country":"India","passengers":2886915,"geo":"11.1367998123, 75.95529937740001"},
{"rank":388,"name":"Marechal Rondon Airport","iata":"CGB-sky","city":"Cuiaba","country":"Brazil","passengers":2882450,"geo":"-15.6528997421, -56.1166992188"},
{"rank":389,"name":"Sultan Abdul Aziz Shah International Airport","iata":"SZB-sky","city":"Kuala Lumpur","country":"Malaysia","passengers":2880586,"geo":"3.130579948425293, 101.54900360107422"},
{"rank":390,"name":"Matsuyama Airport","iata":"MYJ-sky","city":"Matsuyama","country":"Japan","passengers":2863239,"geo":"33.82720184326172, 132.6999969482422"},
{"rank":391,"name":"Long Beach /Daugherty Field/ Airport","iata":"LGB-sky","city":"Long Beach","country":"United States","passengers":2852294,"geo":"33.81769943, -118.1520004"},
{"rank":392,"name":"Lihue Airport","iata":"LIH-sky","city":"Lihue","country":"United States","passengers":2832281,"geo":"21.97599983215332, -159.33900451660156"},
{"rank":393,"name":"Split Airport","iata":"SPU-sky","city":"Split","country":"Croatia","passengers":2818176,"geo":"43.53889846801758, 16.29800033569336"},
{"rank":394,"name":"Ufa International Airport","iata":"UFA-sky","city":"Ufa","country":"Russia","passengers":2814330,"geo":"54.557498931885, 55.874401092529"},
{"rank":395,"name":"El Paso International Airport","iata":"ELP-sky","city":"El Paso","country":"United States","passengers":2807734,"geo":"31.80719948, -106.3779984"},
{"rank":396,"name":"Billy Bishop Toronto City Centre Airport","iata":"YTZ-sky","city":"Toronto","country":"Canada","passengers":2800000,"geo":"43.627499, -79.396202"},
{"rank":397,"name":"Isfahan International Airport","iata":"IFN-sky","city":"Esfahan","country":"Iran","passengers":2784616,"geo":"32.75080108642578, 51.86130142211914"},
{"rank":398,"name":"Lok Nayak Jayaprakash Airport","iata":"PAT-sky","city":"Patina","country":"India","passengers":2781276,"geo":"25.591299057, 85.0879974365"},
{"rank":399,"name":"Langkawi International Airport","iata":"LGK-sky","city":"Langkawi","country":"Malaysia","passengers":2767707,"geo":"6.329730033874512, 99.72869873046875"},
{"rank":400,"name":"Rostov-on-Don Airport","iata":"ROV-sky","city":"Rostov","country":"Russia","passengers":2766000,"geo":"47.493888, 39.924722"},
{"rank":401,"name":"Ingeniero Ambrosio Taravella Airport","iata":"COR-sky","city":"Cordoba","country":"Argentina","passengers":2762393,"geo":"-31.323601, -64.208"},
{"rank":402,"name":"Orlando Sanford International Airport","iata":"SFB-sky","city":"Sanford","country":"United States","passengers":2752410,"geo":"28.777599334716797, -81.23750305175781"},
{"rank":403,"name":"Cheongju International Airport","iata":"CJJ-sky","city":"Chongju","country":"South Korea","passengers":2732755,"geo":"36.717008, 127.498741"},
{"rank":404,"name":"Kalibo International Airport","iata":"KLO-sky","city":"Kalibo","country":"Philippines","passengers":2711036,"geo":"11.679400444, 122.375999451"},
{"rank":405,"name":"Hiroshima Airport","iata":"HIJ-sky","city":"Hiroshima","country":"Japan","passengers":2669210,"geo":"34.4361000061, 132.919006348"},
{"rank":406,"name":"Kurumoch International Airport","iata":"KUF-sky","city":"Samara","country":"Russia","passengers":2649426,"geo":"53.504901885986, 50.16429901123"},
{"rank":407,"name":"Eduardo Gomes International Airport","iata":"MAO-sky","city":"Manaus","country":"Brazil","passengers":2645205,"geo":"-3.0386099815368652, -60.04970169067383"},
{"rank":408,"name":"Santiago de Compostela Airport","iata":"SCQ-sky","city":"Santiago","country":"Spain","passengers":2644925,"geo":"42.89630126953125, -8.415140151977539"},
{"rank":409,"name":"Kazan International Airport","iata":"KZN-sky","city":"Kazan","country":"Russia","passengers":2623423,"geo":"55.606201171875, 49.278701782227"},
{"rank":410,"name":"La Aurora International Airport","iata":"GUA-sky","city":"Guatemala City","country":"Guatemala","passengers":2579123,"geo":"14.5833, -90.527496"},
{"rank":411,"name":"Kotoka International Airport","iata":"ACC-sky","city":"Accra","country":"Ghana","passengers":2547527,"geo":"5.605189800262451, -0.16678600013256073"},
{"rank":412,"name":"Bremen Airport","iata":"BRE-sky","city":"Bremen","country":"Germany","passengers":2540084,"geo":"53.0475006104, 8.78666973114"},
{"rank":413,"name":"Sentani International Airport","iata":"DJJ-sky","city":"Jayapura","country":"Indonesia","passengers":2533445,"geo":"-2.5769500733, 140.5160064698"},
{"rank":414,"name":"Changzhou Benniu Airport","iata":"CZX-sky","city":"Changzhou","country":"China","passengers":2510512,"geo":"31.919701, 119.778999"},
{"rank":415,"name":"Sharm El Sheikh International Airport","iata":"SSH-sky","city":"Sharm El Sheikh","country":"Egypt","passengers":2509277,"geo":"27.9773006439, 34.3950004578"},
{"rank":416,"name":"Chiang Rai International Airport","iata":"CEI-sky","city":"Chiang Rai","country":"Thailand","passengers":2503375,"geo":"19.952299118, 99.88289642330001"},
{"rank":417,"name":"Samui Airport","iata":"USM-sky","city":"Ko Samui","country":"Thailand","passengers":2500000,"geo":"9.547789573669998, 100.06199646"},
{"rank":418,"name":"Julius Nyerere International Airport","iata":"DAR-sky","city":"Dar Es Salaam","country":"Tanzania","passengers":2496394,"geo":"-6.87811, 39.202599"},
{"rank":419,"name":"Gaziantep International Airport","iata":"GZT-sky","city":"Gaziantep","country":"Turkey","passengers":2480979,"geo":"36.9472007751, 37.4786987305"},
{"rank":420,"name":"Frankfurt-Hahn Airport","iata":"HHN-sky","city":"Hahn","country":"Germany","passengers":2471900,"geo":"49.9487, 7.26389"},
{"rank":421,"name":"Hobart International Airport","iata":"HBA-sky","city":"Hobart","country":"Australia","passengers":2440792,"geo":"-42.836101532, 147.509994507"},
{"rank":422,"name":"Kobe Airport","iata":"UKB-sky","city":"Kobe","country":"Japan","passengers":2435110,"geo":"34.6328010559082, 135.2239990234375"},
{"rank":423,"name":"Quatro de Fevereiro Airport","iata":"LAD-sky","city":"Luanda","country":"Angola","passengers":2430794,"geo":"-8.85837, 13.2312"},
{"rank":424,"name":"Governador Aluízio Alves International Airport","iata":"NAT-sky","city":"Natal","country":"Brazil","passengers":2403135,"geo":"-5.768056, -35.376111"},
{"rank":425,"name":"Ercan International Airport","iata":"ECN-sky","city":"Nicosia","country":"Cyprus","passengers":2400000,"geo":"35.154701232910156, 33.49610137939453"},
{"rank":426,"name":"Albany International Airport","iata":"ALB-sky","city":"Albany","country":"United States","passengers":2393506,"geo":"42.74829864501953, -73.80169677734375"},
{"rank":427,"name":"Leipzig Halle Airport","iata":"LEJ-sky","city":"Leipzig","country":"Germany","passengers":2361534,"geo":"51.423889, 12.236389"},
{"rank":428,"name":"Udon Thani Airport","iata":"UTH-sky","city":"Udon Thani","country":"Thailand","passengers":2350005,"geo":"17.386400222800003, 102.788002014"},
{"rank":429,"name":"Marinduque Airport","iata":"MRQ-sky","city":"Gasan","country":"Philippines","passengers":2343346,"geo":"13.361000061035156, 121.82599639892578"},
{"rank":430,"name":"Dubrovnik Airport","iata":"DBV-sky","city":"Dubrovnik","country":"Croatia","passengers":2323065,"geo":"42.5614013671875, 18.268199920654297"},
{"rank":431,"name":"Makung Airport","iata":"MZG-sky","city":"Makung","country":"Taiwan","passengers":2320249,"geo":"23.568700790405273, 119.62799835205078"},
{"rank":432,"name":"Ishigaki Airport","iata":"ISG-sky","city":"Ishigaki","country":"Japan","passengers":2308065,"geo":"24.396389, 124.245"},
{"rank":433,"name":"Yemelyanovo Airport","iata":"KJA-sky","city":"Krasnoyarsk","country":"Russia","passengers":2297468,"geo":"56.172901, 92.493301"},
{"rank":434,"name":"Roland Garros Airport","iata":"RUN-sky","city":"St.-denis","country":"Reunion","passengers":2293242,"geo":"-20.887100219726562, 55.51029968261719"},
{"rank":435,"name":"Bob Hope Airport","iata":"BUR-sky","city":"Burbank","country":"United States","passengers":2282000,"geo":"34.20069885253906, -118.35900115966797"},
{"rank":436,"name":"Devi Ahilyabai Holkar Airport","iata":"IDR-sky","city":"Indore","country":"India","passengers":2256760,"geo":"22.7217998505, 75.8011016846"},
{"rank":437,"name":"Visakhapatnam Airport","iata":"VTZ-sky","city":"Vishakhapatnam","country":"India","passengers":2242645,"geo":"17.721200943, 83.2245025635"},
{"rank":438,"name":"Sheikh ul Alam Airport","iata":"SXR-sky","city":"Srinagar","country":"India","passengers":2227863,"geo":"33.987098693847656, 74.77420043945312"},
{"rank":439,"name":"Miri Airport","iata":"MYY-sky","city":"Miri","country":"Malaysia","passengers":2188048,"geo":"4.322010040283203, 113.98699951171875"},
{"rank":440,"name":"Mineralnyye Vody Airport","iata":"MRV-sky","city":"Mineralnye Vody","country":"Russia","passengers":2180178,"geo":"44.225101470947266, 43.08190155029297"},
{"rank":441,"name":"Vladivostok International Airport","iata":"VVO-sky","city":"Vladivostok","country":"Russia","passengers":2179000,"geo":"43.39899826049805, 132.1479949951172"},
{"rank":442,"name":"Khartoum International Airport","iata":"KRT-sky","city":"Khartoum","country":"Sudan","passengers":2178097,"geo":"15.589500427246094, 32.553199768066406"},
{"rank":443,"name":"Foz do Iguaçu International Airport","iata":"IGU-sky","city":"Foz Do Iguacu","country":"Brazil","passengers":2177298,"geo":"-25.600278854370117, -54.48500061035156"},
{"rank":444,"name":"Coimbatore International Airport","iata":"CJB-sky","city":"Coimbatore","country":"India","passengers":2175212,"geo":"11.029999733, 77.0434036255"},
{"rank":445,"name":"Léopold Sédar Senghor International Airport","iata":"DKR-sky","city":"Dakar","country":"Senegal","passengers":2114269,"geo":"14.739700317382812, -17.49020004272461"},
{"rank":446,"name":"Sri Guru Ram Dass Jee International Airport","iata":"ATQ-sky","city":"Amritsar","country":"India","passengers":2087118,"geo":"31.7096004486, 74.7973022461"},
{"rank":447,"name":"Diyarbakir Airport","iata":"DIY-sky","city":"Diyabakir","country":"Turkey","passengers":2071089,"geo":"37.893901825, 40.201000213600004"},
{"rank":448,"name":"Félix-Houphouët-Boigny International Airport","iata":"ABJ-sky","city":"Abidjan","country":"Cote d'Ivoire","passengers":2070000,"geo":"5.261390209197998, -3.9262900352478027"},
{"rank":449,"name":"Zumbi dos Palmares Airport","iata":"MCZ-sky","city":"Maceio","country":"Brazil","passengers":2068245,"geo":"-9.510809898376465, -35.79169845581055"},
{"rank":450,"name":"Darwin International Airport","iata":"DRW-sky","city":"Darwin","country":"Australia","passengers":2057307,"geo":"-12.41469955444336, 130.8769989013672"},
{"rank":451,"name":"Mangalore International Airport","iata":"IXE-sky","city":"Mangalore","country":"India","passengers":2054005,"geo":"12.9612998962, 74.8900985718"},
{"rank":452,"name":"Khabarovsk-Novy Airport","iata":"KHV-sky","city":"Khabarovsk","country":"Russia","passengers":2051000,"geo":"48.52799987793, 135.18800354004"},
{"rank":453,"name":"Bagdogra Airport","iata":"IXB-sky","city":"Baghdogra","country":"India","passengers":2040765,"geo":"26.68120002746582, 88.32859802246094"},
{"rank":454,"name":"Surat Thani Airport","iata":"URT-sky","city":"Surat Thani","country":"Thailand","passengers":2032042,"geo":"9.13259983063, 99.135597229"},
{"rank":455,"name":"Irkutsk Airport","iata":"IKT-sky","city":"Irkutsk","country":"Russia","passengers":2010000,"geo":"52.268001556396, 104.38899993896"},
{"rank":456,"name":"Dortmund Airport","iata":"DTM-sky","city":"Dortmund","country":"Germany","passengers":2000695,"geo":"51.51829910279999, 7.61223983765"},
{"rank":457,"name":"Palm Springs International Airport","iata":"PSP-sky","city":"Palm Springs","country":"United States","passengers":1998206,"geo":"33.8297004699707, -116.50700378417969"},
{"rank":458,"name":"Sultan Ismail Petra Airport","iata":"KBR-sky","city":"Kota Bahru","country":"Malaysia","passengers":1988212,"geo":"6.1668500900268555, 102.29299926757812"},
{"rank":459,"name":"Nadi International Airport","iata":"NAN-sky","city":"Nandi","country":"Fiji","passengers":1984898,"geo":"-17.755399703979492, 177.4429931640625"},
{"rank":460,"name":"Kayseri Erkilet Airport","iata":"ASR-sky","city":"Kayseri","country":"Turkey","passengers":1980247,"geo":"38.770401001, 35.4953994751"},
{"rank":461,"name":"Dr. Babasaheb Ambedkar International Airport","iata":"NAG-sky","city":"Nagpur","country":"India","passengers":1976707,"geo":"21.092199325561523, 79.04720306396484"},
{"rank":462,"name":"Syracuse Hancock International Airport","iata":"SYR-sky","city":"Syracuse","country":"United States","passengers":1951370,"geo":"43.11119842529297, -76.1063003540039"},
{"rank":463,"name":"Girona Airport","iata":"GRO-sky","city":"Gerona","country":"Spain","passengers":1946816,"geo":"41.901000977, 2.7605500221"},
{"rank":464,"name":"Iloilo International Airport","iata":"ILO-sky","city":"Iloilo","country":"Philippines","passengers":1943719,"geo":"10.833017, 122.493358"},
{"rank":465,"name":"Tabriz International Airport","iata":"TBZ-sky","city":"Tabriz","country":"Iran","passengers":1942726,"geo":"38.1338996887207, 46.23500061035156"},
{"rank":466,"name":"Victoria International Airport","iata":"YYJ-sky","city":"Victoria","country":"Canada","passengers":1934842,"geo":"48.646900177, -123.426002502"},
{"rank":467,"name":"Lal Bahadur Shastri Airport","iata":"VNS-sky","city":"Varanasi","country":"India","passengers":1916454,"geo":"25.4524002075, 82.8592987061"},
{"rank":468,"name":"Pangkal Pinang (Depati Amir) Airport","iata":"PGK-sky","city":"Pangkal Pinang","country":"Indonesia","passengers":1914006,"geo":"-2.16219997406, 106.138999939"},
{"rank":469,"name":"Kelowna International Airport","iata":"YLW-sky","city":"Kelowna","country":"Canada","passengers":1893470,"geo":"49.9561004639, -119.377998352"},
{"rank":470,"name":"Queenstown International Airport","iata":"ZQN-sky","city":"Queenstown International","country":"New Zealand","passengers":1892443,"geo":"-45.0210990906, 168.738998413"},
{"rank":471,"name":"Weeze Airport","iata":"NRN-sky","city":"Weeze","country":"Germany","passengers":1885811,"geo":"51.6024017334, 6.14216995239"},
{"rank":472,"name":"Es Senia Airport","iata":"ORN-sky","city":"Oran","country":"Algeria","passengers":1851910,"geo":"35.6239013672, -0.6211829781529999"},
{"rank":473,"name":"Oita Airport","iata":"OIT-sky","city":"Oita","country":"Japan","passengers":1849834,"geo":"33.479400634799994, 131.736999512"},
{"rank":474,"name":"João Paulo II Airport","iata":"PDL-sky","city":"Ponta Delgada","country":"Portugal","passengers":1849000,"geo":"37.7411994934, -25.6979007721"},
{"rank":475,"name":"Komatsu Airport","iata":"KMQ-sky","city":"Kanazawa","country":"Japan","passengers":1844117,"geo":"36.39459991455078, 136.40699768066406"},
{"rank":476,"name":"Yangzhou Taizhou Airport","iata":"YTY-sky","city":"Yangzhou","country":"China","passengers":1836515,"geo":"32.560184, 119.717141"},
{"rank":477,"name":"Roshchino International Airport","iata":"TJM-sky","city":"Tyumen","country":"Russia","passengers":1831654,"geo":"57.189601898199996, 65.3243026733"},
{"rank":478,"name":"Princess Juliana International Airport","iata":"SXM-sky","city":"Philipsburg","country":"Netherlands Antilles","passengers":1829543,"geo":"18.041000366200002, -63.1088981628"},
{"rank":479,"name":"Takamatsu Airport","iata":"TAK-sky","city":"Takamatsu","country":"Japan","passengers":1809820,"geo":"34.214199066199996, 134.01600647"},
{"rank":480,"name":"Vinh Airport","iata":"VII-sky","city":"Vinh","country":"Vietnam","passengers":1800000,"geo":"18.7376003265, 105.67099762"},
{"rank":481,"name":"Ubon Ratchathani Airport","iata":"UBP-sky","city":"Ubon Ratchathani","country":"Thailand","passengers":1791828,"geo":"15.2512998581, 104.870002747"},
{"rank":482,"name":"Cat Bi International Airport","iata":"HPH-sky","city":"Haiphong","country":"Vietnam","passengers":1787300,"geo":"20.819400787353516, 106.7249984741211"},
{"rank":483,"name":"Portland International Jetport Airport","iata":"PWM-sky","city":"Portland","country":"United States","passengers":1785649,"geo":"43.64619827, -70.30930328"},
{"rank":484,"name":"Khrabrovo Airport","iata":"KGD-sky","city":"Kaliningrad","country":"Russia","passengers":1780000,"geo":"54.88999938964844, 20.592599868774414"},
{"rank":485,"name":"Cagayan De Oro Airport","iata":"CGY-sky","city":"Ladag","country":"Philippines","passengers":1776353,"geo":"8.612203, 124.456496"},
{"rank":486,"name":"Borg El Arab Airport","iata":"HBE-sky","city":"Alexandria","country":"Egypt","passengers":1774163,"geo":"30.917699813842773, 29.696399688720703"},
{"rank":487,"name":"Hakodate Airport","iata":"HKD-sky","city":"Hakodate","country":"Japan","passengers":1772052,"geo":"41.7700004578, 140.822006226"},
{"rank":488,"name":"Phu Bai Airport","iata":"HUI-sky","city":"Hue","country":"Vietnam","passengers":1750000,"geo":"16.401500701899998, 107.70300293"},
{"rank":489,"name":"Surgut Airport","iata":"SGC-sky","city":"Surgut","country":"Russia","passengers":1723312,"geo":"61.34370040893555, 73.40180206298828"},
{"rank":490,"name":"El Plumerillo Airport","iata":"MDZ-sky","city":"Mendoza","country":"Argentina","passengers":1717419,"geo":"-32.8316993713, -68.7929000854"},
{"rank":491,"name":"Samsun Çarşamba Airport","iata":"SZF-sky","city":"Samsun","country":"Turkey","passengers":1716993,"geo":"41.254501, 36.567101"},
{"rank":492,"name":"Porto Seguro Airport","iata":"BPS-sky","city":"Porto Seguro","country":"Brazil","passengers":1716037,"geo":"-16.438601, -39.080898"},
{"rank":493,"name":"Dresden Airport","iata":"DRS-sky","city":"Dresden","country":"Germany","passengers":1706563,"geo":"51.1328010559082, 13.767200469970703"},
{"rank":494,"name":"Khon Kaen Airport","iata":"KKC-sky","city":"Khon Kaen","country":"Thailand","passengers":1703209,"geo":"16.466600418099997, 102.783996582"},
{"rank":495,"name":"Ljubljana Jože Pučnik Airport","iata":"LJU-sky","city":"Ljubljana","country":"Slovenia","passengers":1683045,"geo":"46.223701, 14.4576"},
{"rank":496,"name":"Québec City Jean Lesage International Airport","iata":"YQB-sky","city":"Quebec","country":"Canada","passengers":1670880,"geo":"46.7911, -71.393303"},
{"rank":497,"name":"Zakynthos International Airport","iata":"ZTH-sky","city":"Zakynthos","country":"Greece","passengers":1659646,"geo":"37.7509, 20.8843"},
{"rank":498,"name":"Pensacola Regional Airport","iata":"PNS-sky","city":"Pensacola","country":"United States","passengers":1650000,"geo":"30.473400115967, -87.186599731445"},
{"rank":499,"name":"Puerto Princesa Airport","iata":"PPS-sky","city":"Puerto Princesa","country":"Philippines","passengers":1644003,"geo":"9.742119789123535, 118.75900268554688"},
{"rank":500,"name":"Sultan Thaha Airport","iata":"DJB-sky","city":"Jambi","country":"Indonesia","passengers":1639873,"geo":"-1.6380200386047363, 103.64399719238281"},
{"rank":501,"name":"Rodríguez Ballón International Airport","iata":"AQP-sky","city":"Arequipa","country":"Peru","passengers":1634090,"geo":"-16.3411006927, -71.5830993652"},
{"rank":502,"name":"Manchester Airport","iata":"MHT-sky","city":"Manchester NH","country":"United States","passengers":1630000,"geo":"42.932598, -71.435699"},
{"rank":503,"name":"Port Elizabeth International Airport","iata":"PLZ-sky","city":"Port Elizabeth","country":"South Africa","passengers":1620705,"geo":"-33.9849014282, 25.6173000336"},
{"rank":504,"name":"Gwangju Airport","iata":"KWJ-sky","city":"Kwangju","country":"South Korea","passengers":1613775,"geo":"35.123173, 126.805444"},
{"rank":505,"name":"Poznań-Ławica Airport","iata":"POZ-sky","city":"Poznan","country":"Poland","passengers":1611074,"geo":"52.421001434299995, 16.8262996674"},
{"rank":506,"name":"Marechal Cunha Machado International Airport","iata":"SLZ-sky","city":"Sao Luis","country":"Brazil","passengers":1601836,"geo":"-2.585360050201416, -44.234100341796875"},
{"rank":507,"name":"Lien Khuong Airport","iata":"DLI-sky","city":"Dalat","country":"Vietnam","passengers":1600000,"geo":"11.75, 108.366997"},
{"rank":508,"name":"Ministro Victor Konder International Airport","iata":"NVT-sky","city":"Navegantes","country":"Brazil","passengers":1588921,"geo":"-26.879999, -48.651402"},
{"rank":509,"name":"Agadir–Al Massira Airport","iata":"AGA-sky","city":"Agadir","country":"Morocco","passengers":1544160,"geo":"30.325000762939453, -9.413069725036621"},
{"rank":510,"name":"Campo Grande Airport","iata":"CGR-sky","city":"Campo Grande","country":"Brazil","passengers":1536838,"geo":"-20.468700408900002, -54.6725006104"},
{"rank":511,"name":"Augusto C. Sandino (Managua) International Airport","iata":"MGA-sky","city":"Managua","country":"Nicaragua","passengers":1533034,"geo":"12.141500473022461, -86.16819763183594"},
{"rank":512,"name":"Entebbe International Airport","iata":"EBB-sky","city":"Entebbe","country":"Uganda","passengers":1530031,"geo":"0.042386, 32.443501"},
{"rank":513,"name":"Adi Sumarmo Wiryokusumo Airport","iata":"SOC-sky","city":"Solo City","country":"Indonesia","passengers":1525013,"geo":"-7.516089916229248, 110.75700378417969"},
{"rank":514,"name":"El Tari Airport","iata":"KOE-sky","city":"Kupang","country":"Indonesia","passengers":1523342,"geo":"-10.171600341796875, 123.6709976196289"},
{"rank":515,"name":"Chelyabinsk Balandino Airport","iata":"CEK-sky","city":"Chelyabinsk","country":"Russia","passengers":1517000,"geo":"55.305801, 61.5033"},
{"rank":516,"name":"Clark International Airport","iata":"CRK-sky","city":"Angeles City","country":"Philippines","passengers":1514531,"geo":"15.186, 120.559998"},
{"rank":517,"name":"Nakhon Si Thammarat Airport","iata":"NST-sky","city":"Nakhon Si Thammarat","country":"Thailand","passengers":1503463,"geo":"8.539620399475098, 99.9447021484375"},
{"rank":518,"name":"Douala International Airport","iata":"DLA-sky","city":"Douala","country":"Cameroon","passengers":1500000,"geo":"4.0060801506, 9.719479560849999"},
{"rank":519,"name":"Bacolod-Silay City International Airport","iata":"BCD-sky","city":"Bacolod","country":"Philippines","passengers":1498741,"geo":"10.7764, 123.014999"},
{"rank":520,"name":"Townsville Airport","iata":"TSV-sky","city":"Townsville","country":"Australia","passengers":1497946,"geo":"-19.252500534057617, 146.76499938964844"},
{"rank":521,"name":"Sibu Airport","iata":"SBW-sky","city":"Sibu","country":"Malaysia","passengers":1497412,"geo":"2.2616000175476074, 111.98500061035156"},
{"rank":522,"name":"Westchester County Airport","iata":"HPN-sky","city":"White Plains","country":"United States","passengers":1468851,"geo":"41.06700134277344, -73.70760345458984"},
{"rank":523,"name":"Saskatoon John G. Diefenbaker International Airport","iata":"YXE-sky","city":"Saskatoon","country":"Canada","passengers":1462751,"geo":"52.170799255371094, -106.69999694824219"},
{"rank":524,"name":"Radin Inten II (Branti) Airport","iata":"TKG-sky","city":"Bandar Lampung-Sumatra Island","country":"Indonesia","passengers":1419342,"geo":"-5.240556, 105.175556"},
{"rank":525,"name":"Asturias Airport","iata":"OVD-sky","city":"Aviles","country":"Spain","passengers":1407217,"geo":"43.5635986328125, -6.0346198081970215"},
{"rank":526,"name":"Van Ferit Melen Airport","iata":"VAN-sky","city":"Van","country":"Turkey","passengers":1394328,"geo":"38.46820068359375, 43.332298278808594"},
{"rank":527,"name":"Okayama Airport","iata":"OKJ-sky","city":"Okayama","country":"Japan","passengers":1391723,"geo":"34.7569007874, 133.854995728"},
{"rank":528,"name":"Presidente Castro Pinto International Airport","iata":"JPA-sky","city":"Joao Pessoa","country":"Brazil","passengers":1387496,"geo":"-7.145833015440001, -34.9486122131"},
{"rank":529,"name":"Tawau Airport","iata":"TWU-sky","city":"Tawau","country":"Malaysia","passengers":1374893,"geo":"4.320159912109375, 118.12799835205078"},
{"rank":530,"name":"Anapa Vityazevo Airport","iata":"AAQ-sky","city":"Anapa","country":"Russia","passengers":1364000,"geo":"45.002101898193, 37.347301483154"},
{"rank":531,"name":"Tiruchirapally Civil Airport Airport","iata":"TRZ-sky","city":"Tiruchirappalli","country":"India","passengers":1359447,"geo":"10.765399932861328, 78.70970153808594"},
{"rank":532,"name":"Djerba–Zarzis International Airport","iata":"DJE-sky","city":"Djerba","country":"Tunisia","passengers":1354502,"geo":"33.875, 10.775500297546387"},
{"rank":533,"name":"Kōchi Ryōma Airport","iata":"KCZ-sky","city":"Kochi","country":"Japan","passengers":1350930,"geo":"33.546259, 133.668938"},
{"rank":534,"name":"Bolshoye Savino Airport","iata":"PEE-sky","city":"Perm","country":"Russia","passengers":1338373,"geo":"57.914501190186, 56.021198272705"},
{"rank":535,"name":"Miyako Airport","iata":"MMY-sky","city":"Miyako","country":"Japan","passengers":1335697,"geo":"24.782800674399997, 125.294998169"},
{"rank":536,"name":"Shubuling Airport","iata":"LYI-sky","city":"Linyi","country":"China","passengers":1328071,"geo":"35.04610061645508, 118.41200256347656"},
{"rank":537,"name":"Hilo International Airport","iata":"ITO-sky","city":"Hilo","country":"United States","passengers":1327245,"geo":"19.721399307250977, -155.04800415039062"},
{"rank":539,"name":"Kitakyūshū Airport","iata":"KKJ-sky","city":"Kitakyushu","country":"Japan","passengers":1317504,"geo":"33.8459014893, 131.035003662"},
{"rank":540,"name":"Mombasa Moi International Airport","iata":"MBA-sky","city":"Mombasa","country":"Kenya","passengers":1313168,"geo":"-4.034830093383789, 39.594200134277344"},
{"rank":541,"name":"La Palma Airport","iata":"SPC-sky","city":"Santa Cruz De La Palma","country":"Spain","passengers":1302485,"geo":"28.626499, -17.7556"},
{"rank":542,"name":"Mandalay International Airport","iata":"MDL-sky","city":"Mandalay","country":"Burma","passengers":1290000,"geo":"21.702199935913086, 95.97789764404297"},
{"rank":543,"name":"Bandar Abbas International Airport","iata":"BND-sky","city":"Bandar Abbas","country":"Iran","passengers":1289063,"geo":"27.218299865722656, 56.37779998779297"},
{"rank":544,"name":"San Carlos De Bariloche Airport","iata":"BRC-sky","city":"San Carlos De Bariloche","country":"Argentina","passengers":1279524,"geo":"-41.151199, -71.157501"},
{"rank":545,"name":"Launceston Airport","iata":"LST-sky","city":"Launceston","country":"Australia","passengers":1272198,"geo":"-41.54529953, 147.214004517"},
{"rank":546,"name":"Karlsruhe Baden-Baden Airport","iata":"FKB-sky","city":"Karlsruhe/Baden-Baden","country":"Germany","passengers":1240551,"geo":"48.7793998718, 8.08049964905"},
{"rank":547,"name":"Akita Airport","iata":"AXT-sky","city":"Akita","country":"Japan","passengers":1238082,"geo":"39.6156005859375, 140.218994140625"},
{"rank":548,"name":"Santa Maria Airport","iata":"AJU-sky","city":"Aracaju","country":"Brazil","passengers":1225789,"geo":"-10.984000206, -37.0703010559"},
{"rank":549,"name":"Port Harcourt International Airport","iata":"PHC-sky","city":"Port Hartcourt","country":"Nigeria","passengers":1223807,"geo":"5.0154900550842285, 6.94959020614624"},
{"rank":550,"name":"Regina International Airport","iata":"YQR-sky","city":"Regina","country":"Canada","passengers":1219311,"geo":"50.43190002441406, -104.66600036621094"},
{"rank":552,"name":"Sarasota Bradenton International Airport","iata":"SRQ-sky","city":"Sarasota","country":"United States","passengers":1186419,"geo":"27.39539909362793, -82.55439758300781"},
{"rank":553,"name":"Greater Rochester International Airport","iata":"ROC-sky","city":"Rochester","country":"United States","passengers":1186002,"geo":"43.118900299072266, -77.67240142822266"},
{"rank":554,"name":"Agartala Airport","iata":"IXA-sky","city":"Agartala","country":"India","passengers":1184867,"geo":"23.8869991302, 91.24040222170001"},
{"rank":555,"name":"Daniel Z. Romualdez Airport","iata":"TAC-sky","city":"Tacloban","country":"Philippines","passengers":1182951,"geo":"11.228035, 125.027761"},
{"rank":556,"name":"Daniel Oduber Quiros International Airport","iata":"LIR-sky","city":"Liberia","country":"Costa Rica","passengers":1182123,"geo":"10.5933, -85.544403"},
{"rank":557,"name":"Silvio Pettirossi International Airport","iata":"ASU-sky","city":"Asuncion","country":"Paraguay","passengers":1180111,"geo":"-25.239999771118164, -57.52000045776367"},
{"rank":558,"name":"Memmingen Airport","iata":"FMM-sky","city":"Memmingen","country":"Germany","passengers":1179875,"geo":"47.988800048799995, 10.2395000458"},
{"rank":559,"name":"Hatay Airport","iata":"HTY-sky","city":"Hatay","country":"Turkey","passengers":1171484,"geo":"36.36277771, 36.282222747800006"},
{"rank":560,"name":"Jammu Airport","iata":"IXJ-sky","city":"Jammu","country":"India","passengers":1159937,"geo":"32.6890983582, 74.8374023438"},
{"rank":561,"name":"Burlington International Airport","iata":"BTV-sky","city":"Burlington","country":"United States","passengers":1151000,"geo":"44.471900939899996, -73.15329742429999"},
{"rank":562,"name":"Asahikawa Airport","iata":"AKJ-sky","city":"Asahikawa","country":"Japan","passengers":1148825,"geo":"43.670799255371094, 142.44700622558594"},
{"rank":563,"name":"Newcastle Airport","iata":"NTL-sky","city":"Newcastle","country":"Australia","passengers":1142997,"geo":"-32.79499816894531, 151.83399963378906"},
{"rank":564,"name":"A Coruña Airport","iata":"LCG-sky","city":"La Coruna","country":"Spain","passengers":1141242,"geo":"43.302101, -8.37726"},
{"rank":565,"name":"Balıkesir Körfez Airport","iata":"EDO-sky","city":"Balikesir Korfez","country":"Turkey","passengers":1115595,"geo":"39.554599762, 27.0137996674"},
{"rank":566,"name":"Bijie Feixiong Airport","iata":"BFJ-sky","city":"Bijie","country":"China","passengers":1110613,"geo":"27.267066, 105.472097"},
{"rank":567,"name":"Senador Petrônio Portela Airport","iata":"THE-sky","city":"Teresina","country":"Brazil","passengers":1104451,"geo":"-5.0599398613, -42.8235015869"},
{"rank":568,"name":"Vadodara Airport","iata":"BDQ-sky","city":"Baroda","country":"India","passengers":1103981,"geo":"22.336201, 73.226303"},
{"rank":569,"name":"Ten. Cel. Aviador César Bombonato Airport","iata":"UDI-sky","city":"Uberlandia","country":"Brazil","passengers":1102569,"geo":"-18.883612, -48.225277"},
{"rank":570,"name":"Martin Miguel De Guemes International Airport","iata":"SLA-sky","city":"Salta","country":"Argentina","passengers":1095104,"geo":"-24.856000900299996, -65.4861984253"},
{"rank":571,"name":"Amílcar Cabral International Airport","iata":"SID-sky","city":"Amilcar Cabral","country":"Cape Verde","passengers":1093059,"geo":"16.7414, -22.9494"},
{"rank":572,"name":"Maharana Pratap Airport","iata":"UDR-sky","city":"Udaipur","country":"India","passengers":1089899,"geo":"24.617700576799997, 73.89610290530001"},
{"rank":573,"name":"Erzurum International Airport","iata":"ERZ-sky","city":"Erzurum","country":"Turkey","passengers":1085117,"geo":"39.9565010071, 41.17020034789999"},
{"rank":574,"name":"Zamboanga International Airport","iata":"ZAM-sky","city":"Zamboanga","country":"Philippines","passengers":1076000,"geo":"6.922420024871826, 122.05999755859375"},
{"rank":575,"name":"Tangier Ibn Batouta Airport","iata":"TNG-sky","city":"Tanger","country":"Morocco","passengers":1070247,"geo":"35.726898193400004, -5.91689014435"},
{"rank":576,"name":"Konya Airport","iata":"KYA-sky","city":"Konya","country":"Turkey","passengers":1067753,"geo":"37.979, 32.561901"},
{"rank":577,"name":"Uytash Airport","iata":"MCX-sky","city":"Makhachkala","country":"Russia","passengers":1067685,"geo":"42.81679916381836, 47.65230178833008"},
{"rank":578,"name":"Vigo Airport","iata":"VGO-sky","city":"Vigo","country":"Spain","passengers":1065595,"geo":"42.2318000793457, -8.62677001953125"},
{"rank":579,"name":"Jerez Airport","iata":"XRY-sky","city":"Jerez","country":"Spain","passengers":1046251,"geo":"36.744598388671875, -6.060110092163086"},
{"rank":580,"name":"Birsa Munda Airport","iata":"IXR-sky","city":"Ranchi","country":"India","passengers":1035740,"geo":"23.314300537100003, 85.3217010498"},
{"rank":581,"name":"Reus Air Base","iata":"REU-sky","city":"Reus","country":"Spain","passengers":1022964,"geo":"41.14739990234375, 1.1671700477600098"},
{"rank":582,"name":"Volgograd International Airport","iata":"VOG-sky","city":"Volgograd","country":"Russia","passengers":1013985,"geo":"48.782501220703125, 44.34550094604492"},
{"rank":583,"name":"Almería International Airport","iata":"LEI-sky","city":"Almeria","country":"Spain","passengers":1007446,"geo":"36.84389877319336, -2.3701000213623047"},
{"rank":584,"name":"Juwata Airport","iata":"TRK-sky","city":"Taraken","country":"Indonesia","passengers":1002484,"geo":"3.326667, 117.569444"},
{"rank":585,"name":"Nelson Airport","iata":"NSN-sky","city":"Nelson","country":"New Zealand","passengers":1000373,"geo":"-41.298301696777344, 173.2209930419922"},
{"rank":586,"name":"Tokushima Airport","iata":"TKS-sky","city":"Tokushima","country":"Japan","passengers":1000121,"geo":"34.132801, 134.606995"},
{"rank":587,"name":"Cataratas del Iguazú International Airport","iata":"IGR-sky","city":"Iguazu Falls","country":"Argentina","passengers":99846,"geo":"-25.737301, -54.4734"},
{"rank":588,"name":"Aomori Airport","iata":"AOJ-sky","city":"Aomori","country":"Japan","passengers":992696,"geo":"40.73469924926758, 140.6909942626953"},
{"rank":589,"name":"Yuzhno-Sakhalinsk Airport","iata":"UUS-sky","city":"Yuzhno-sakhalinsk","country":"Russia","passengers":9852,"geo":"46.88869857788086, 142.71800231933594"},
{"rank":590,"name":"Niigata Airport","iata":"KIJ-sky","city":"Niigata","country":"Japan","passengers":984629,"geo":"37.9558982849, 139.121002197"},
{"rank":591,"name":"Madurai Airport","iata":"IXM-sky","city":"Madurai","country":"India","passengers":978919,"geo":"9.83450984955, 78.09339904790001"},
{"rank":592,"name":"Dunedin Airport","iata":"DUD-sky","city":"Dunedin","country":"New Zealand","passengers":973089,"geo":"-45.9281005859375, 170.197998046875"},
{"rank":593,"name":"Nizhny Novgorod Strigino International Airport","iata":"GOJ-sky","city":"Nizhniy Novgorod","country":"Russia","passengers":966,"geo":"56.230098724365, 43.784000396729"},
{"rank":594,"name":"St Petersburg Clearwater International Airport","iata":"PIE-sky","city":"St. Petersburg","country":"United States","passengers":965,"geo":"27.91020012, -82.68740082"},
{"rank":595,"name":"Omsk Central Airport","iata":"OMS-sky","city":"Omsk","country":"Russia","passengers":9636,"geo":"54.96699905395508, 73.31050109863281"},
{"rank":596,"name":"Münster Osnabrück Airport","iata":"FMO-sky","city":"Munster","country":"Germany","passengers":962348,"geo":"52.134601593, 7.68483018875"},
{"rank":597,"name":"Sarajevo International Airport","iata":"SJJ-sky","city":"Sarajevo","country":"Bosnia and Herzegovina","passengers":957971,"geo":"43.82460021972656, 18.331499099731445"},
{"rank":598,"name":"Elazığ Airport","iata":"EZS-sky","city":"Elazig","country":"Turkey","passengers":955988,"geo":"38.6068992615, 39.2914009094"},
{"rank":599,"name":"Sultan Mahmud Airport","iata":"TGG-sky","city":"Kuala Terengganu","country":"Malaysia","passengers":94366,"geo":"5.3826398849487305, 103.10299682617188"},
{"rank":600,"name":"Novy Urengoy Airport","iata":"NUX-sky","city":"Novy Urengoy","country":"Russia","passengers":939625,"geo":"66.06939697265625, 76.52030181884766"},
{"rank":601,"name":"Santander Airport","iata":"SDR-sky","city":"Santander","country":"Spain","passengers":937641,"geo":"43.427101135253906, -3.82000994682312"},
{"rank":602,"name":"Abeid Amani Karume International Airport","iata":"ZNZ-sky","city":"Zanzibar","country":"Tanzania","passengers":934337,"geo":"-6.22202, 39.224899"},
{"rank":603,"name":"Coronel FAP Francisco Secada Vignetta International Airport","iata":"IQT-sky","city":"Iquitos","country":"Peru","passengers":934031,"geo":"-3.7847399711608887, -73.30879974365234"},
{"rank":604,"name":"Mackay Airport","iata":"MKY-sky","city":"Mackay","country":"Australia","passengers":928354,"geo":"-21.171699523900003, 149.179992676"},
{"rank":605,"name":"Yamaguchi Ube Airport","iata":"UBJ-sky","city":"Yamaguchi","country":"Japan","passengers":918238,"geo":"33.930000305200004, 131.279006958"},
{"rank":606,"name":"Gazipaşa Airport","iata":"GZP-sky","city":"Alanya","country":"Turkey","passengers":915046,"geo":"36.299217, 32.300598"},
{"rank":607,"name":"Northwest Florida Beaches International Airport","iata":"ECP-sky","city":"Panama City","country":"United States","passengers":910,"geo":"30.357106, -85.795414"},
{"rank":608,"name":"Presidente Peron Airport","iata":"NQN-sky","city":"Neuquen","country":"Argentina","passengers":90798,"geo":"-38.949001, -68.155701"},
{"rank":609,"name":"Al Maktoum International Airport","iata":"DWC-sky","city":"Dubai","country":"United Arab Emirates","passengers":90494,"geo":"24.896356, 55.161389"},
{"rank":610,"name":"Yakutsk Airport","iata":"YKS-sky","city":"Yakutsk","country":"Russia","passengers":902463,"geo":"62.093299865722656, 129.77099609375"},
{"rank":611,"name":"Federico Garcia Lorca Airport","iata":"GRX-sky","city":"Granada","country":"Spain","passengers":901961,"geo":"37.18870162963867, -3.777359962463379"},
{"rank":612,"name":"Port Moresby Jacksons International Airport","iata":"POM-sky","city":"Port Moresby","country":"Papua New Guinea","passengers":900,"geo":"-9.443380355834961, 147.22000122070312"},
{"rank":613,"name":"Sandakan Airport","iata":"SDK-sky","city":"Sandakan","country":"Malaysia","passengers":896347,"geo":"5.900899887084961, 118.05899810791016"},
{"rank":614,"name":"Talagi Airport","iata":"ARH-sky","city":"Arkhangelsk","country":"Russia","passengers":8934,"geo":"64.60030364990234, 40.71670150756836"},
{"rank":615,"name":"Imphal Airport","iata":"IMF-sky","city":"Imphal","country":"India","passengers":886338,"geo":"24.7600002289, 93.896697998"},
{"rank":616,"name":"Dehradun Airport","iata":"DED-sky","city":"Dehra Dun","country":"India","passengers":882564,"geo":"30.189699, 78.180298"},
{"rank":617,"name":"Governador José Richa Airport","iata":"LDB-sky","city":"Londrina","country":"Brazil","passengers":880429,"geo":"-23.333599090599996, -51.1301002502"},
{"rank":618,"name":"Luoyang Airport","iata":"LYA-sky","city":"Luoyang","country":"China","passengers":880253,"geo":"34.741100311299995, 112.388000488"},
{"rank":619,"name":"Tagbilaran Airport","iata":"TAG-sky","city":"Tagbilaran","country":"Philippines","passengers":871383,"geo":"9.665442, 123.853533"},
{"rank":620,"name":"Philip S. W. Goldson International Airport","iata":"BZE-sky","city":"Belize City","country":"Belize","passengers":867976,"geo":"17.539100646972656, -88.30819702148438"},
{"rank":621,"name":"Ramón Villeda Morales International Airport","iata":"SAP-sky","city":"San Pedro Sula","country":"Honduras","passengers":867747,"geo":"15.4526, -87.923599"},
{"rank":622,"name":"Leite Lopes Airport","iata":"RAO-sky","city":"Ribeirao Preto","country":"Brazil","passengers":867544,"geo":"-21.136388778686523, -47.776668548583984"},
{"rank":623,"name":"Buon Ma Thuot Airport","iata":"BMV-sky","city":"Buonmethuot","country":"Vietnam","passengers":860,"geo":"12.668299675, 108.120002747"},
{"rank":624,"name":"Abdul Rachman Saleh Airport","iata":"MLG-sky","city":"Malang","country":"Indonesia","passengers":859,"geo":"-7.926559925079999, 112.714996338"},
{"rank":625,"name":"Persian Gulf Airport","iata":"PGU-sky","city":"Khalije Fars","country":"Iran","passengers":85299,"geo":"27.379601, 52.737701"},
{"rank":626,"name":"Bintulu Airport","iata":"BTU-sky","city":"Bintulu","country":"Malaysia","passengers":849596,"geo":"3.12385010719, 113.019996643"},
{"rank":627,"name":"Capitán FAP Guillermo Concha Iberico International Airport","iata":"PIU-sky","city":"Piura","country":"Peru","passengers":849388,"geo":"-5.20574998856, -80.61640167239999"},
{"rank":628,"name":"Sunshine Coast Airport","iata":"MCY-sky","city":"Maroochydore","country":"Australia","passengers":847906,"geo":"-26.6033, 153.091003"},
{"rank":629,"name":"Murmansk Airport","iata":"MMK-sky","city":"Murmansk","country":"Russia","passengers":84644,"geo":"68.78170013427734, 32.75080108642578"},
{"rank":630,"name":"Kermanshah Airport","iata":"KER-sky","city":"Kerman","country":"Iran","passengers":846317,"geo":"30.274400711099997, 56.9510993958"},
{"rank":631,"name":"General Santos International Airport","iata":"GES-sky","city":"Romblon","country":"Philippines","passengers":838941,"geo":"6.05800008774, 125.096000671"},
{"rank":632,"name":"Izumo Airport","iata":"IZO-sky","city":"Izumo","country":"Japan","passengers":832825,"geo":"35.4136009216, 132.88999939"},
{"rank":633,"name":"Fresno Yosemite International Airport","iata":"FAT-sky","city":"Fresno","country":"United States","passengers":805252,"geo":"36.77619934082031, -119.71800231933594"},
{"rank":634,"name":"Sultan Abdul Halim Airport","iata":"AOR-sky","city":"Alor Setar","country":"Malaysia","passengers":802304,"geo":"6.189670085906982, 100.39800262451172"},
{"rank":635,"name":"Trang Airport","iata":"TST-sky","city":"Trang","country":"Thailand","passengers":799279,"geo":"7.508739948272705, 99.6166000366211"},
{"rank":636,"name":"Malvinas Argentinas Airport","iata":"USH-sky","city":"Ushuaia","country":"Argentina","passengers":795652,"geo":"-54.8433, -68.2958"},
{"rank":637,"name":"Governador Jorge Teixeira de Oliveira Airport","iata":"PVH-sky","city":"Porto Velho","country":"Brazil","passengers":794109,"geo":"-8.70928955078125, -63.90230178833008"},
{"rank":638,"name":"Kilimanjaro International Airport","iata":"JRO-sky","city":"Kilimanjaro","country":"Tanzania","passengers":7808,"geo":"-3.42940998077, 37.0745010376"},
{"rank":639,"name":"Ndjili International Airport","iata":"FIH-sky","city":"Kinshasa","country":"Democratic Republic of the Congo","passengers":773338,"geo":"-4.38575, 15.4446"},
{"rank":640,"name":"Malatya Tulga Airport","iata":"MLX-sky","city":"Malatya","country":"Turkey","passengers":767701,"geo":"38.435298919699996, 38.0909996033"},
{"rank":641,"name":"Shahid Sadooghi Airport","iata":"AZD-sky","city":"Yazd","country":"Iran","passengers":764074,"geo":"31.9048995972, 54.2765007019"},
{"rank":642,"name":"Memanbetsu Airport","iata":"MMB-sky","city":"Memanbetsu","country":"Japan","passengers":757103,"geo":"43.8805999756, 144.164001465"},
{"rank":643,"name":"Islas Malvinas Airport","iata":"ROS-sky","city":"Rosario","country":"Argentina","passengers":747571,"geo":"-32.9036, -60.785"},
{"rank":644,"name":"Sultan Iskandar Muda International Airport","iata":"BTJ-sky","city":"Banda Aceh","country":"Indonesia","passengers":741438,"geo":"5.522872024010001, 95.42063713070002"},
{"rank":645,"name":"Paderborn Lippstadt Airport","iata":"PAD-sky","city":"Paderborn","country":"Germany","passengers":738474,"geo":"51.614101409899995, 8.616319656369999"},
{"rank":646,"name":"Toyama Airport","iata":"TOY-sky","city":"Toyama","country":"Japan","passengers":73674,"geo":"36.64830017089844, 137.18800354003906"},
{"rank":647,"name":"Godofredo P. Ramos Airport","iata":"MPH-sky","city":"Caticlan","country":"Philippines","passengers":736559,"geo":"11.9245, 121.954002"},
{"rank":648,"name":"Fatmawati Soekarno Airport","iata":"BKS-sky","city":"Bengkulu","country":"Indonesia","passengers":736315,"geo":"-3.8637, 102.338997"},
{"rank":649,"name":"Nagoya Airport","iata":"NKM-sky","city":"Nagoya","country":"Japan","passengers":735114,"geo":"35.255001068115234, 136.9239959716797"},
{"rank":650,"name":"Prof. Eribelto Manoel Reino State Airport","iata":"SJP-sky","city":"Sao Jose Do Rio Preto","country":"Brazil","passengers":728162,"geo":"-20.816600799599996, -49.40650177"},
{"rank":651,"name":"Orenburg Central Airport","iata":"REN-sky","city":"Orenburg","country":"Russia","passengers":714635,"geo":"51.795799255371094, 55.45669937133789"},
{"rank":652,"name":"Mc Allen Miller International Airport","iata":"MFE-sky","city":"Mcallen","country":"United States","passengers":714067,"geo":"26.17580032, -98.23860168"},
{"rank":653,"name":"U-Tapao International Airport","iata":"UTP-sky","city":"Pattaya","country":"Thailand","passengers":710,"geo":"12.679900169372559, 101.00499725341797"},
{"rank":654,"name":"Toncontín International Airport","iata":"TGU-sky","city":"Tegucigalpa","country":"Honduras","passengers":697925,"geo":"14.06089973449707, -87.21720123291016"},
{"rank":655,"name":"Şanlıurfa GAP Airport","iata":"GNY-sky","city":"Sanliurfa","country":"Turkey","passengers":697729,"geo":"37.445663, 38.895592"},
{"rank":656,"name":"Tallahassee Regional Airport","iata":"TLH-sky","city":"Tallahassee","country":"United States","passengers":692724,"geo":"30.396499633789062, -84.35030364990234"},
{"rank":657,"name":"Kushiro Airport","iata":"KUH-sky","city":"Kushiro","country":"Japan","passengers":685379,"geo":"43.041000366199995, 144.192993164"},
{"rank":658,"name":"Acapulco International Airport","iata":"ACA-sky","city":"Acapulco","country":"Mexico","passengers":685124,"geo":"16.757099151611328, -99.75399780273438"},
{"rank":659,"name":"Handan Airport","iata":"HDG-sky","city":"Handan","country":"China","passengers":684081,"geo":"36.5258333333, 114.425555556"},
{"rank":660,"name":"Bancasi Airport","iata":"BXU-sky","city":"Butuan","country":"Philippines","passengers":681263,"geo":"8.9515, 125.4788"},
{"rank":661,"name":"Nizhnevartovsk Airport","iata":"NJC-sky","city":"Nizhnevartovsk","country":"Russia","passengers":680577,"geo":"60.94929885864258, 76.48359680175781"},
{"rank":662,"name":"Rick Husband Amarillo International Airport","iata":"AMA-sky","city":"Amarillo","country":"United States","passengers":679653,"geo":"35.219398, -101.706001"},
{"rank":663,"name":"Amami Airport","iata":"ASJ-sky","city":"Amami","country":"Japan","passengers":676601,"geo":"28.430599212646484, 129.71299743652344"},
{"rank":664,"name":"Raja Bhoj International Airport","iata":"BHO-sky","city":"Bhopal","country":"India","passengers":676015,"geo":"23.2875003815, 77.3374023438"},
{"rank":665,"name":"Chu Lai International Airport","iata":"VCL-sky","city":"Chu Lai","country":"Vietnam","passengers":673,"geo":"15.403300285299999, 108.706001282"},
{"rank":666,"name":"Mutiara Airport","iata":"PLW-sky","city":"Palu","country":"Indonesia","passengers":672698,"geo":"-0.9185420274734497, 119.91000366210938"},
{"rank":667,"name":"Cadete FAP Guillermo Del Castillo Paredes Airport","iata":"TPP-sky","city":"Tarapoto","country":"Peru","passengers":671576,"geo":"-6.508739948272705, -76.37319946289062"},
{"rank":668,"name":"Miho Yonago Airport","iata":"YGJ-sky","city":"Miho","country":"Japan","passengers":666445,"geo":"35.4921989440918, 133.23599243164062"},
{"rank":669,"name":"Karratha Airport","iata":"KTA-sky","city":"Karratha","country":"Australia","passengers":659913,"geo":"-20.712200164799995, 116.773002625"},
{"rank":670,"name":"Santa Barbara Municipal Airport","iata":"SBA-sky","city":"Santa Barbara","country":"United States","passengers":658955,"geo":"34.42620087, -119.8399963"},
{"rank":671,"name":"Yelizovo Airport","iata":"PKC-sky","city":"Petropavlovsk","country":"Russia","passengers":658718,"geo":"53.16790008544922, 158.45399475097656"},
{"rank":672,"name":"Regional de Maringá - Sílvio Nane Junior Airport","iata":"MGF-sky","city":"Maringa","country":"Brazil","passengers":658,"geo":"-23.479444503799996, -52.01222229"},
{"rank":673,"name":"Brigadeiro Lysias Rodrigues Airport","iata":"PMW-sky","city":"Palmas","country":"Brazil","passengers":654397,"geo":"-10.291500091600001, -48.35699844359999"},
{"rank":674,"name":"Hawke's Bay Airport","iata":"NPE-sky","city":"NAPIER","country":"New Zealand","passengers":652456,"geo":"-39.465801, 176.869995"},
{"rank":675,"name":"Abadan Airport","iata":"ABD-sky","city":"Abadan","country":"Iran","passengers":644915,"geo":"30.371099472, 48.2282981873"},
{"rank":676,"name":"Tjilik Riwut Airport","iata":"PKY-sky","city":"Palangkaraya","country":"Indonesia","passengers":64233,"geo":"-2.22513008118, 113.943000793"},
{"rank":677,"name":"Rockhampton Airport","iata":"ROK-sky","city":"Rockhampton","country":"Australia","passengers":634913,"geo":"-23.3819007874, 150.475006104"},
{"rank":678,"name":"Lajes Field","iata":"TER-sky","city":"Lajes (terceira Island)","country":"Portugal","passengers":631236,"geo":"38.761799, -27.090799"},
{"rank":679,"name":"Saga Airport","iata":"HSG-sky","city":"Saga","country":"Japan","passengers":630478,"geo":"33.149700164799995, 130.302001953"},
{"rank":680,"name":"Palmerston North Airport","iata":"PMR-sky","city":"Palmerston North","country":"New Zealand","passengers":630,"geo":"-40.32059860229492, 175.61700439453125"},
{"rank":681,"name":"Bogashevo Airport","iata":"TOF-sky","city":"Tomsk","country":"Russia","passengers":628932,"geo":"56.380298614502, 85.208297729492"},
{"rank":682,"name":"Bushehr Airport","iata":"BUZ-sky","city":"Bushehr","country":"Iran","passengers":625976,"geo":"28.9447994232, 50.8345985413"},
{"rank":683,"name":"El Calafate Airport","iata":"FTE-sky","city":"El Calafate","country":"Argentina","passengers":625562,"geo":"-50.2803, -72.053101"},
{"rank":684,"name":"Vijayawada Airport","iata":"VGA-sky","city":"Vijayawada","country":"India","passengers":622354,"geo":"16.530399322509766, 80.79679870605469"},
{"rank":685,"name":"Long Island Mac Arthur Airport","iata":"ISP-sky","city":"Islip","country":"United States","passengers":620,"geo":"40.79520035, -73.10019684"},
{"rank":686,"name":"General E. Mosconi Airport","iata":"CRD-sky","city":"Comodoro Rivadavia","country":"Argentina","passengers":618257,"geo":"-45.7853, -67.4655"},
{"rank":687,"name":"Harare International Airport","iata":"HRE-sky","city":"Harare","country":"Zimbabwe","passengers":612208,"geo":"-17.931801, 31.0928"},
{"rank":688,"name":"Ivato Airport","iata":"TNR-sky","city":"Antananarivo","country":"Madagascar","passengers":611175,"geo":"-18.7969, 47.478802"},
{"rank":689,"name":"Voronezh International Airport","iata":"VOZ-sky","city":"Voronezh","country":"Russia","passengers":606697,"geo":"51.81420135498047, 39.22959899902344"},
{"rank":690,"name":"Tokachi-Obihiro Airport","iata":"OBO-sky","city":"Obihiro","country":"Japan","passengers":605703,"geo":"42.7332992554, 143.216995239"},
{"rank":691,"name":"Bahia - Jorge Amado Airport","iata":"IOS-sky","city":"Ilheus","country":"Brazil","passengers":596351,"geo":"-14.815999984741, -39.033199310303"},
{"rank":692,"name":"Pula Airport","iata":"PUY-sky","city":"Pula","country":"Croatia","passengers":595812,"geo":"44.89350128173828, 13.922200202941895"},
{"rank":693,"name":"Labuan Airport","iata":"LBU-sky","city":"Labuan","country":"Malaysia","passengers":59529,"geo":"5.300680160522461, 115.25"},
{"rank":694,"name":"Zemunik Airport","iata":"ZAD-sky","city":"Zadar","country":"Croatia","passengers":589841,"geo":"44.108299, 15.3467"},
{"rank":695,"name":"Begishevo Airport","iata":"NBC-sky","city":"Nizhnekamsk","country":"Russia","passengers":587775,"geo":"55.564701080322266, 52.092498779296875"},
{"rank":696,"name":"Alice Springs Airport","iata":"ASP-sky","city":"Alice Springs","country":"Australia","passengers":582755,"geo":"-23.806699752807617, 133.90199279785156"},
{"rank":697,"name":"Astrakhan Airport","iata":"ASF-sky","city":"Astrakhan","country":"Russia","passengers":582302,"geo":"46.2832984924, 48.0063018799"},
{"rank":698,"name":"Alberto Alcolumbre Airport","iata":"MCP-sky","city":"Macapa","country":"Brazil","passengers":576257,"geo":"0.0506640002131, -51.0722007751"},
{"rank":699,"name":"Mardin Airport","iata":"MQM-sky","city":"Mardin","country":"Turkey","passengers":567597,"geo":"37.223300933800004, 40.6316986084"},
{"rank":700,"name":"Legazpi City International Airport","iata":"LGP-sky","city":"Legazpi","country":"Philippines","passengers":564372,"geo":"13.1575, 123.735"},
{"rank":701,"name":"Leh Kushok Bakula Rimpochee Airport","iata":"IXL-sky","city":"Leh","country":"India","passengers":5638,"geo":"34.1358985901, 77.5465011597"},
{"rank":702,"name":"Capitan FAP Carlos Martinez De Pinillos International Airport","iata":"TRU-sky","city":"Trujillo","country":"Peru","passengers":560922,"geo":"-8.08141040802002, -79.10880279541016"},
{"rank":703,"name":"Charlotte County Airport","iata":"PGD-sky","city":"Punta Gorda","country":"United States","passengers":558471,"geo":"26.92020035, -81.9905014"},
{"rank":704,"name":"Teniente Benjamin Matienzo Airport","iata":"TUC-sky","city":"Tucuman","country":"Argentina","passengers":556834,"geo":"-26.8409, -65.104897"},
{"rank":705,"name":"Zahedan International Airport","iata":"ZAH-sky","city":"Zahedan","country":"Iran","passengers":554683,"geo":"29.47570037841797, 60.90620040893555"},
{"rank":706,"name":"Sibulan Airport","iata":"DGT-sky","city":"Dumaguete","country":"Philippines","passengers":546276,"geo":"9.3337097168, 123.300003052"},
{"rank":707,"name":"Ulsan Airport","iata":"USN-sky","city":"Ulsan","country":"South Korea","passengers":545321,"geo":"35.59349823, 129.352005005"},
{"rank":708,"name":"Orlando Bezerra de Menezes Airport","iata":"JDO-sky","city":"Juazeiro Do Norte","country":"Brazil","passengers":5424,"geo":"-7.21895980835, -39.270099639899996"},
{"rank":709,"name":"Hyakuri Airport","iata":"IBR-sky","city":"Ibaraki","country":"Japan","passengers":538227,"geo":"36.181098938, 140.414993286"},
{"rank":710,"name":"Tuzla International Airport","iata":"TZL-sky","city":"Tuzla","country":"Bosnia and Herzegovina","passengers":535834,"geo":"44.45869827270508, 18.72480010986328"},
{"rank":711,"name":"Sivas Nuri Demirağ Airport","iata":"VAS-sky","city":"Sivas","country":"Turkey","passengers":533278,"geo":"39.813801, 36.9035"},
{"rank":712,"name":"Barnaul Airport","iata":"BAX-sky","city":"Barnaul","country":"Russia","passengers":5216,"geo":"53.363800048828125, 83.53849792480469"},
{"rank":713,"name":"Friedrichshafen Airport","iata":"FDH-sky","city":"Friedrichshafen","country":"Germany","passengers":517209,"geo":"47.671298980699994, 9.51148986816"},
{"rank":714,"name":"Capitan FAP Jose A Quinones Gonzales International Airport","iata":"CIX-sky","city":"Chiclayo","country":"Peru","passengers":516589,"geo":"-6.787479877471924, -79.8281021118164"},
{"rank":715,"name":"Lauro Carneiro de Loyola Airport","iata":"JOI-sky","city":"Joinville","country":"Brazil","passengers":515832,"geo":"-26.22450065612793, -48.797401428222656"},
{"rank":716,"name":"Norilsk-Alykel Airport","iata":"NSK-sky","city":"Norilsk","country":"Russia","passengers":515764,"geo":"69.31109619140625, 87.33219909667969"},
{"rank":717,"name":"Çardak Airport","iata":"DNZ-sky","city":"Denizli","country":"Turkey","passengers":509047,"geo":"37.7855987549, 29.7012996674"},
{"rank":718,"name":"Cadjehoun Airport","iata":"COO-sky","city":"Cotonou","country":"Benin","passengers":503633,"geo":"6.357230186462402, 2.384350061416626"},
{"rank":719,"name":"Yeosu Airport","iata":"RSU-sky","city":"Yeosu","country":"South Korea","passengers":503371,"geo":"34.84230041503906, 127.61699676513672"},
{"rank":720,"name":"Cap FAP David Abenzur Rengifo International Airport","iata":"PCL-sky","city":"Pucallpa","country":"Peru","passengers":4998,"geo":"-8.37794017791748, -74.57430267333984"},
{"rank":721,"name":"Batumi International Airport","iata":"BUS-sky","city":"Batumi","country":"Georgia","passengers":495668,"geo":"41.6102981567, 41.5997009277"},
{"rank":722,"name":"Hamilton Island Airport","iata":"HTI-sky","city":"Hamilton Island","country":"Australia","passengers":49386,"geo":"-20.3581008911, 148.95199585"},
{"rank":723,"name":"Phitsanulok Airport","iata":"PHS-sky","city":"Phitsanulok","country":"Thailand","passengers":492117,"geo":"16.782899856567383, 100.27899932861328"},
{"rank":724,"name":"Tirupati Airport","iata":"TIR-sky","city":"Tirupeti","country":"India","passengers":486029,"geo":"13.632499694800002, 79.543296814"},
{"rank":725,"name":"Senador Nilo Coelho Airport","iata":"PNZ-sky","city":"Petrolina","country":"Brazil","passengers":485495,"geo":"-9.362409591674805, -40.56909942626953"},
{"rank":726,"name":"Can Tho International Airport","iata":"VCA-sky","city":"Can Tho","country":"Vietnam","passengers":481447,"geo":"10.085100174, 105.711997986"},
{"rank":727,"name":"Rendani Airport","iata":"MKW-sky","city":"Manokwari","country":"Indonesia","passengers":479889,"geo":"-0.8918330073356628, 134.0489959716797"},
{"rank":728,"name":"Ras Al Khaimah International Airport","iata":"RKT-sky","city":"Ras Al Khaimah","country":"United Arab Emirates","passengers":471432,"geo":"25.613500595092773, 55.93880081176758"},
{"rank":729,"name":"Port Hedland International Airport","iata":"PHE-sky","city":"Port Hedland","country":"Australia","passengers":470741,"geo":"-20.3777999878, 118.625999451"},
{"rank":730,"name":"Brno–Tuřany Airport","iata":"BRQ-sky","city":"Brno","country":"Czech Republic","passengers":470,"geo":"49.15129852294922, 16.694400787353516"},
{"rank":731,"name":"Belgorod International Airport","iata":"EGO-sky","city":"Belgorod","country":"Russia","passengers":468787,"geo":"50.643798828125, 36.5900993347168"},
{"rank":732,"name":"Annaba Airport","iata":"AAE-sky","city":"Annaba","country":"Algeria","passengers":466053,"geo":"36.822201, 7.809174"},
{"rank":733,"name":"Inca Manco Capac International Airport","iata":"JUL-sky","city":"Juliaca","country":"Peru","passengers":46265,"geo":"-15.467100143432617, -70.158203125"},
{"rank":734,"name":"Maestro Wilson Fonseca Airport","iata":"STM-sky","city":"Santarem","country":"Brazil","passengers":452966,"geo":"-2.4247219562530518, -54.785831451416016"},
{"rank":735,"name":"Urmia Airport","iata":"OMH-sky","city":"Uromiyeh","country":"Iran","passengers":451967,"geo":"37.6680984497, 45.0686988831"},
{"rank":736,"name":"Syktyvkar Airport","iata":"SCW-sky","city":"Syktyvkar","country":"Russia","passengers":451187,"geo":"61.64699935913086, 50.84510040283203"},
{"rank":737,"name":"Oued Irara Airport","iata":"HME-sky","city":"Hassi Messaoud","country":"Algeria","passengers":450929,"geo":"31.673000335699996, 6.140439987180001"},
{"rank":738,"name":"Rasht Airport","iata":"RAS-sky","city":"Rasht","country":"Iran","passengers":446576,"geo":"37.323333, 49.617778"},
{"rank":739,"name":"Mwanza Airport","iata":"MWZ-sky","city":"Mwanza","country":"Tanzania","passengers":444215,"geo":"-2.4444899559020996, 32.932701110839844"},
{"rank":740,"name":"Gladstone Airport","iata":"GLT-sky","city":"Gladstone","country":"Australia","passengers":44373,"geo":"-23.869699, 151.223007"},
{"rank":741,"name":"Zaragoza Air Base","iata":"ZAZ-sky","city":"Zaragoza","country":"Spain","passengers":438035,"geo":"41.66619873046875, -1.0415500402450562"},
{"rank":742,"name":"Ballina Byron Gateway Airport","iata":"BNK-sky","city":"Ballina Byron Bay","country":"Australia","passengers":437026,"geo":"-28.8339004517, 153.56199646"},
{"rank":743,"name":"Iskandar Airport","iata":"PKN-sky","city":"Pangkalan Bun","country":"Indonesia","passengers":436264,"geo":"-2.70519995689, 111.672996521"},
{"rank":744,"name":"Gainesville Regional Airport","iata":"GNV-sky","city":"Gainesville","country":"United States","passengers":436184,"geo":"29.6900997162, -82.2717971802"},
{"rank":745,"name":"New Plymouth Airport","iata":"NPL-sky","city":"New Plymouth","country":"New Zealand","passengers":435,"geo":"-39.00859832763672, 174.1790008544922"},
{"rank":746,"name":"Saratov Central Airport","iata":"RTW-sky","city":"Saratov","country":"Russia","passengers":433385,"geo":"51.564998626708984, 46.04669952392578"},
{"rank":747,"name":"Moses Kilangin Airport","iata":"TIM-sky","city":"Timika","country":"Indonesia","passengers":429774,"geo":"-4.528279781341553, 136.88699340820312"},
{"rank":748,"name":"Kars Airport","iata":"KSY-sky","city":"Kars","country":"Turkey","passengers":424724,"geo":"40.562198638916016, 43.1150016784668"},
{"rank":749,"name":"Buluh Tumbang (H A S Hanandjoeddin) Airport","iata":"TJQ-sky","city":"Tanjung Pandan","country":"Indonesia","passengers":421211,"geo":"-2.74571990967, 107.754997253"},
{"rank":750,"name":"Phu Cat Airport","iata":"UIH-sky","city":"Phucat","country":"Vietnam","passengers":42052,"geo":"13.955, 109.042"},
{"rank":751,"name":"Comandante Espora Airport","iata":"BHI-sky","city":"Bahia Blanca","country":"Argentina","passengers":410415,"geo":"-38.725, -62.1693"},
{"rank":752,"name":"Rajkot Airport","iata":"RAJ-sky","city":"Rajkot","country":"India","passengers":405518,"geo":"22.3092002869, 70.77950286869999"},
{"rank":753,"name":"Kopitnari Airport","iata":"KUT-sky","city":"Kutaisi","country":"Georgia","passengers":405173,"geo":"42.176700592, 42.4826011658"},
{"rank":754,"name":"Ignatyevo Airport","iata":"BQS-sky","city":"Blagoveschensk","country":"Russia","passengers":405,"geo":"50.42539978027344, 127.41200256347656"},
{"rank":755,"name":"Saarbrücken Airport","iata":"SCN-sky","city":"Saarbruecken","country":"Germany","passengers":396849,"geo":"49.214599609400004, 7.10950994492"},
{"rank":756,"name":"Hanamaki Airport","iata":"HNA-sky","city":"Hanamaki","country":"Japan","passengers":395647,"geo":"39.4286003112793, 141.13499450683594"},
{"rank":757,"name":"Mallam Aminu International Airport","iata":"KAN-sky","city":"Kano","country":"Nigeria","passengers":38953,"geo":"12.0476, 8.52462"},
{"rank":758,"name":"Broome International Airport","iata":"BME-sky","city":"Broome","country":"Australia","passengers":383952,"geo":"-17.944700241088867, 122.23200225830078"},
{"rank":759,"name":"Jalaluddin Airport","iata":"GTO-sky","city":"Gorontalo","country":"Indonesia","passengers":381082,"geo":"0.63711899519, 122.849998474"},
{"rank":760,"name":"Chita-Kadala Airport","iata":"HTA-sky","city":"Chita","country":"Russia","passengers":3805,"geo":"52.026299, 113.306"},
{"rank":761,"name":"Nan Airport","iata":"NNT-sky","city":"Nan","country":"Thailand","passengers":37642,"geo":"18.807899475097656, 100.78299713134766"},
{"rank":762,"name":"Nakhon Phanom Airport","iata":"KOP-sky","city":"Nakhon Phanom","country":"Thailand","passengers":372026,"geo":"17.383800506591797, 104.64299774169922"},
{"rank":763,"name":"Juan Manuel Galvez International Airport","iata":"RTB-sky","city":"Roatan","country":"Honduras","passengers":371657,"geo":"16.316799, -86.523003"},
{"rank":764,"name":"Beslan Airport","iata":"OGZ-sky","city":"Beslan","country":"Russia","passengers":369288,"geo":"43.2051010132, 44.6066017151"},
{"rank":765,"name":"Tainan Airport","iata":"TNN-sky","city":"Tainan","country":"Taiwan","passengers":367124,"geo":"22.95039939880371, 120.20600128173828"},
{"rank":766,"name":"Tottori Airport","iata":"TTJ-sky","city":"Tottori","country":"Japan","passengers":366925,"geo":"35.5301017761, 134.167007446"},
{"rank":767,"name":"Shonai Airport","iata":"SYO-sky","city":"Shonai","country":"Japan","passengers":364815,"geo":"38.81219863889999, 139.787002563"},
{"rank":768,"name":"Frans Kaisiepo Airport","iata":"BIK-sky","city":"Biak","country":"Indonesia","passengers":36141,"geo":"-1.190019965171814, 136.10800170898438"},
{"rank":769,"name":"Nevşehir Kapadokya Airport","iata":"NAV-sky","city":"Nevsehir","country":"Turkey","passengers":359563,"geo":"38.7719, 34.5345"},
{"rank":770,"name":"Stavropol Shpakovskoye Airport","iata":"STW-sky","city":"Stavropol","country":"Russia","passengers":356253,"geo":"45.10919952392578, 42.11280059814453"},
{"rank":771,"name":"Coffs Harbour Airport","iata":"CFS-sky","city":"Coff's Harbour","country":"Australia","passengers":354212,"geo":"-30.3206005096, 153.115997314"},
{"rank":772,"name":"Akanu Ibiam International Airport","iata":"ENU-sky","city":"Enugu","country":"Nigeria","passengers":35282,"geo":"6.474269866943359, 7.561960220336914"},
{"rank":773,"name":"Jodhpur Airport","iata":"JDH-sky","city":"Jodhpur","country":"India","passengers":350583,"geo":"26.251100540161133, 73.04889678955078"},
{"rank":774,"name":"Tauranga Airport","iata":"TRG-sky","city":"Tauranga","country":"New Zealand","passengers":350085,"geo":"-37.67190170288086, 176.1959991455078"},
{"rank":775,"name":"Newman Airport","iata":"ZNE-sky","city":"Newman","country":"Australia","passengers":348885,"geo":"-23.417800903299998, 119.803001404"},
{"rank":776,"name":"Dominique Edward Osok Airport","iata":"SOQ-sky","city":"Sorong","country":"Indonesia","passengers":347355,"geo":"-0.894, 131.287"},
{"rank":777,"name":"Sakon Nakhon Airport","iata":"SNO-sky","city":"Sakon Nakhon","country":"Thailand","passengers":346351,"geo":"17.195100784301758, 104.11900329589844"},
{"rank":778,"name":"Plácido de Castro Airport","iata":"RBR-sky","city":"Rio Branco","country":"Brazil","passengers":345079,"geo":"-9.868888854980469, -67.89805603027344"},
{"rank":779,"name":"Muş Airport","iata":"MSR-sky","city":"Mus","country":"Turkey","passengers":342953,"geo":"38.747798919677734, 41.66120147705078"},
{"rank":780,"name":"Sultan Khairun Babullah Airport","iata":"TTE-sky","city":"Ternate","country":"Indonesia","passengers":342313,"geo":"0.831413984298706, 127.38099670410156"},
{"rank":781,"name":"Victoria Falls Airport","iata":"VFA-sky","city":"Victoria Falls","country":"Zimbabwe","passengers":341196,"geo":"-18.09589958190918, 25.839000701904297"},
{"rank":782,"name":"Roi Et Airport","iata":"ROI-sky","city":"Roi Et","country":"Thailand","passengers":334955,"geo":"16.11680030822754, 103.77400207519531"},
{"rank":783,"name":"Aurangabad Airport","iata":"IXU-sky","city":"Aurangabad","country":"India","passengers":326971,"geo":"19.862699508666992, 75.39810180664062"},
{"rank":784,"name":"Melilla Airport","iata":"MLN-sky","city":"Melilla","country":"Spain","passengers":324366,"geo":"35.279800415, -2.9562599659"},
{"rank":785,"name":"Leoš Janáček Airport Ostrava","iata":"OSR-sky","city":"Ostrava","country":"Czech Republic","passengers":324116,"geo":"49.6963005065918, 18.111099243164062"},
{"rank":786,"name":"Enrique Malek International Airport","iata":"DAV-sky","city":"David","country":"Panama","passengers":323465,"geo":"8.390999794006348, -82.43499755859375"},
{"rank":787,"name":"Muan International Airport","iata":"MWX-sky","city":"Muan","country":"South Korea","passengers":321675,"geo":"34.991406, 126.382814"},
{"rank":788,"name":"Francisco B. Reyes Airport","iata":"USU-sky","city":"Busuanga","country":"Philippines","passengers":321595,"geo":"12.1215000153, 120.099998474"},
{"rank":789,"name":"Hamilton International Airport","iata":"HLZ-sky","city":"Hamilton","country":"New Zealand","passengers":317348,"geo":"-37.8666992188, 175.332000732"},
{"rank":790,"name":"Resistencia International Airport","iata":"RES-sky","city":"Resistencia","country":"Argentina","passengers":31629,"geo":"-27.45, -59.0561"},
{"rank":791,"name":"Izhevsk Airport","iata":"IJK-sky","city":"Izhevsk","country":"Russia","passengers":315702,"geo":"56.82809829711914, 53.45750045776367"},
{"rank":792,"name":"Ayers Rock Connellan Airport","iata":"AYQ-sky","city":"Uluru","country":"Australia","passengers":307068,"geo":"-25.1861, 130.975998"},
{"rank":793,"name":"Dibrugarh Airport","iata":"DIB-sky","city":"Mohanbari","country":"India","passengers":305796,"geo":"27.4839000702, 95.0168991089"},
{"rank":794,"name":"Gelendzhik Airport","iata":"GDZ-sky","city":"Gelendzhik","country":"Russia","passengers":304,"geo":"44.5820926295, 38.0124807358"},
{"rank":795,"name":"Woodbourne Airport","iata":"BHE-sky","city":"Woodbourne","country":"New Zealand","passengers":302884,"geo":"-41.5182991027832, 173.8699951171875"},
{"rank":796,"name":"Nairobi Wilson Airport","iata":"WIL-sky","city":"Nairobi","country":"Kenya","passengers":302194,"geo":"-1.321720004081726, 36.81480026245117"},
{"rank":797,"name":"Stewart International Airport","iata":"SWF-sky","city":"Newburgh","country":"United States","passengers":302,"geo":"41.50410079956055, -74.10479736328125"},
{"rank":798,"name":"Pleiku Airport","iata":"PXU-sky","city":"Pleiku","country":"Vietnam","passengers":300471,"geo":"14.004500389099121, 108.01699829101562"},
{"rank":799,"name":"Taitung Airport","iata":"TTT-sky","city":"Fengnin","country":"Taiwan","passengers":300432,"geo":"22.7549991607666, 121.10199737548828"},
{"rank":800,"name":"Mopah Airport","iata":"MKQ-sky","city":"Merauke","country":"Indonesia","passengers":300332,"geo":"-8.52029037475586, 140.41799926757812"},
{"rank":801,"name":"Prefeito Renato Moreira Airport","iata":"IMP-sky","city":"Imperatriz","country":"Brazil","passengers":300023,"geo":"-5.53129, -47.459999"},
{"rank":802,"name":"Almirante Marco Andres Zar Airport","iata":"REL-sky","city":"Trelew","country":"Argentina","passengers":298946,"geo":"-43.2105, -65.2703"},
{"rank":803,"name":"Salekhard Airport","iata":"SLY-sky","city":"Salekhard","country":"Russia","passengers":296294,"geo":"66.5907974243164, 66.61100006103516"},
{"rank":804,"name":"Erzincan Airport","iata":"ERC-sky","city":"Erzincan","country":"Turkey","passengers":296284,"geo":"39.7102012634, 39.527000427199994"},
{"rank":805,"name":"Soummam Airport","iata":"BJA-sky","city":"Bejaja","country":"Algeria","passengers":294933,"geo":"36.7120018005, 5.0699200630200005"},
{"rank":806,"name":"Invercargill Airport","iata":"IVC-sky","city":"Invercargill","country":"New Zealand","passengers":294832,"geo":"-46.41239929199219, 168.31300354003906"},
{"rank":807,"name":"Mirny Airport","iata":"MJZ-sky","city":"Mirnyj","country":"Russia","passengers":29141,"geo":"62.534698486328125, 114.03900146484375"},
{"rank":808,"name":"Labo Airport","iata":"OZC-sky","city":"Ozamis","country":"Philippines","passengers":290966,"geo":"8.178509712219238, 123.84200286865234"},
{"rank":809,"name":"Piloto Civil N. Fernández Airport","iata":"RGL-sky","city":"Rio Gallegos","country":"Argentina","passengers":255982,"geo":"-51.6089, -69.3126"},
{"rank":810,"name":"Molokai Airport","iata":"MKK-sky","city":"Molokai","country":"United States","passengers":290588,"geo":"21.15290069580078, -157.0959930419922"},
{"rank":811,"name":"Lampang Airport","iata":"LPT-sky","city":"Lampang","country":"Thailand","passengers":29042,"geo":"18.27090072631836, 99.50420379638672"},
{"rank":812,"name":"Ástor Piazzola International Airport","iata":"MDQ-sky","city":"Mar Del Plata","country":"Argentina","passengers":285289,"geo":"-37.9342, -57.5733"},
{"rank":813,"name":"Atlas Brasil Cantanhede Airport","iata":"BVB-sky","city":"Boa Vista","country":"Brazil","passengers":283699,"geo":"2.84138894081, -60.6922225952"},
{"rank":814,"name":"Erfurt–Weimar Airport","iata":"ERF-sky","city":"Erfurt","country":"Germany","passengers":282731,"geo":"50.979801177978516, 10.958100318908691"},
{"rank":815,"name":"San Sebastian Airport","iata":"EAS-sky","city":"San Sebastian","country":"Spain","passengers":281859,"geo":"43.35649871826172, -1.7906099557876587"},
{"rank":816,"name":"Whitsunday Coast Airport","iata":"PPP-sky","city":"Prosserpine","country":"Australia","passengers":280848,"geo":"-20.4950008392, 148.552001953"},
{"rank":817,"name":"João Correa da Rocha Airport","iata":"MAB-sky","city":"Maraba","country":"Brazil","passengers":280174,"geo":"-5.36858987808, -49.138000488299994"},
{"rank":818,"name":"Mário Ribeiro Airport","iata":"MOC-sky","city":"Montes Claros","country":"Brazil","passengers":280022,"geo":"-16.706899642899998, -43.818901062"},
{"rank":819,"name":"Raja Haji Fisabilillah International Airport","iata":"TNJ-sky","city":"Tanjung Pinang","country":"Indonesia","passengers":274509,"geo":"0.922683000565, 104.531997681"},
{"rank":820,"name":"Sultan Azlan Shah Airport","iata":"IPH-sky","city":"Ipoh","country":"Malaysia","passengers":274146,"geo":"4.567969799041748, 101.09200286865234"},
{"rank":821,"name":"Şırnak Şerafettin Elçi Airport","iata":"NKT-sky","city":"Cizre","country":"Turkey","passengers":272576,"geo":"37.3647, 42.0582"},
{"rank":822,"name":"Ulan-Ude Airport (Mukhino)","iata":"UUD-sky","city":"Ulan-ude","country":"Russia","passengers":2697,"geo":"51.80780029296875, 107.43800354003906"},
{"rank":823,"name":"Kemerovo Airport","iata":"KEJ-sky","city":"Kemorovo","country":"Russia","passengers":26856,"geo":"55.27009963989258, 86.1072006225586"},
{"rank":824,"name":"Roxas Airport","iata":"RXS-sky","city":"Roxas City","country":"Philippines","passengers":267388,"geo":"11.597700119018555, 122.75199890136719"},
{"rank":825,"name":"Kisumu Airport","iata":"KIS-sky","city":"Kisumu","country":"Kenya","passengers":267379,"geo":"-0.0861390009522438, 34.72890090942383"},
{"rank":826,"name":"Gobernador Horacio Guzman International Airport","iata":"JUJ-sky","city":"Jujuy","country":"Argentina","passengers":264819,"geo":"-24.392799, -65.097801"},
{"rank":827,"name":"Rajahmundry Airport","iata":"RJA-sky","city":"Rajahmundry","country":"India","passengers":261348,"geo":"17.1103992462, 81.81819915770001"},
{"rank":828,"name":"Loei Airport","iata":"LOE-sky","city":"Loei","country":"Thailand","passengers":261274,"geo":"17.43910026550293, 101.72200012207031"},
{"rank":829,"name":"Matsu Nangan Airport","iata":"LZN-sky","city":"Matsu Islands","country":"Taiwan","passengers":259289,"geo":"26.1598, 119.958"},
{"rank":831,"name":"Presidente Prudente Airport","iata":"PPB-sky","city":"President Prudente","country":"Brazil","passengers":256883,"geo":"-22.1751003265, -51.4245986938"},
{"rank":832,"name":"Misawa Air Base","iata":"MSJ-sky","city":"Misawa","country":"Japan","passengers":252616,"geo":"40.703201293899994, 141.367996216"},
{"rank":833,"name":"Fukushima Airport","iata":"FKS-sky","city":"Fukushima","country":"Japan","passengers":250535,"geo":"37.22740173339844, 140.43099975585938"},
{"rank":834,"name":"Tsushima Airport","iata":"TSJ-sky","city":"Tsushima","country":"Japan","passengers":250194,"geo":"34.2849006653, 129.330993652"},
{"rank":835,"name":"Cheboksary Airport","iata":"CSY-sky","city":"Cheboksary","country":"Russia","passengers":250,"geo":"56.090301513671875, 47.3473014831543"},
{"rank":836,"name":"Fernando de Noronha Airport","iata":"FEN-sky","city":"Fernando Do Noronha","country":"Brazil","passengers":248248,"geo":"-3.85493, -32.423302"},
{"rank":837,"name":"Albury Airport","iata":"ABX-sky","city":"Albury","country":"Australia","passengers":244611,"geo":"-36.06779861450195, 146.95799255371094"},
{"rank":838,"name":"Dipolog Airport","iata":"DPL-sky","city":"Dipolog","country":"Philippines","passengers":243418,"geo":"8.60198349877, 123.341875076"},
{"rank":839,"name":"Narathiwat Airport","iata":"NAW-sky","city":"Narathiwat","country":"Thailand","passengers":241721,"geo":"6.5199198722839355, 101.74299621582031"},
{"rank":840,"name":"Kuantan Airport","iata":"KUA-sky","city":"Kuantan","country":"Malaysia","passengers":241314,"geo":"3.7753899097442627, 103.20899963378906"},
{"rank":841,"name":"Rotorua Regional Airport","iata":"ROT-sky","city":"Rotorua","country":"New Zealand","passengers":241303,"geo":"-38.10919952392578, 176.31700134277344"},
{"rank":842,"name":"Süleyman Demirel International Airport","iata":"ISE-sky","city":"Isparta","country":"Turkey","passengers":241016,"geo":"37.8554000854, 30.368400573699997"},
{"rank":843,"name":"Ulyanovsk East Airport","iata":"ULY-sky","city":"Ulyanovsk","country":"Russia","passengers":241,"geo":"54.4010009765625, 48.80270004272461"},
{"rank":844,"name":"Kumejima Airport","iata":"UEO-sky","city":"Kumejima","country":"Japan","passengers":238875,"geo":"26.363500595092773, 126.71399688720703"},
{"rank":845,"name":"Nalchik Airport","iata":"NAL-sky","city":"Nalchik","country":"Russia","passengers":236865,"geo":"43.512901306152344, 43.636600494384766"},
{"rank":846,"name":"Lengpui Airport","iata":"AJL-sky","city":"Aizwal","country":"India","passengers":235613,"geo":"23.840599060099997, 92.6196975708"},
{"rank":847,"name":"Belo Horizonte/Pampulha – Carlos Drummond de Andrade Airport","iata":"PLU-sky","city":"Belo Horizonte","country":"Brazil","passengers":234675,"geo":"-19.851200103759766, -43.950599670410156"},
{"rank":848,"name":"Niagara Falls International Airport","iata":"IAG-sky","city":"Niagara Falls","country":"United States","passengers":233302,"geo":"43.1072998046875, -78.94619750976562"},
{"rank":849,"name":"Kunsan Air Base","iata":"KUV-sky","city":"Kunsan","country":"South Korea","passengers":232132,"geo":"35.90380096435547, 126.61599731445312"},
{"rank":850,"name":"Emerald Airport","iata":"EMD-sky","city":"Emerald","country":"Australia","passengers":230274,"geo":"-23.5674991608, 148.179000854"},
{"rank":851,"name":"Khanty Mansiysk Airport","iata":"HMA-sky","city":"Khanty-Mansiysk","country":"Russia","passengers":230124,"geo":"61.028499603271484, 69.08609771728516"},
{"rank":852,"name":"Albrook International Airport","iata":"PAC-sky","city":"Panama","country":"Panama","passengers":230,"geo":"8.973340034484863, -79.55560302734375"},
{"rank":853,"name":"Kahramanmaraş Airport","iata":"KCM-sky","city":"Kahramanmaras","country":"Turkey","passengers":228689,"geo":"37.5388259888, 36.9535217285"},
{"rank":854,"name":"Kalgoorlie Boulder Airport","iata":"KGI-sky","city":"Kalgoorlie","country":"Australia","passengers":227946,"geo":"-30.789400100699996, 121.461997986"},
{"rank":855,"name":"Port Macquarie Airport","iata":"PQQ-sky","city":"Port Macquarie","country":"Australia","passengers":225198,"geo":"-31.4358005524, 152.863006592"},
{"rank":856,"name":"Binaka Airport","iata":"GNS-sky","city":"Gunung Sitoli","country":"Indonesia","passengers":225147,"geo":"1.16638, 97.704697"},
{"rank":857,"name":"Cherepovets Airport","iata":"CEE-sky","city":"Cherepovets","country":"Russia","passengers":221463,"geo":"59.273601532, 38.015800476100004"},
{"rank":858,"name":"Domingo Faustino Sarmiento Airport","iata":"UAQ-sky","city":"San Julian","country":"Argentina","passengers":217712,"geo":"-31.571501, -68.418198"},
{"rank":859,"name":"Igarka Airport","iata":"IAA-sky","city":"Igarka","country":"Russia","passengers":215413,"geo":"67.43720245361328, 86.62190246582031"},
{"rank":860,"name":"Mildura Airport","iata":"MQL-sky","city":"Mildura","country":"Australia","passengers":212789,"geo":"-34.229198455799995, 142.085998535"},
{"rank":861,"name":"Silchar Airport","iata":"IXS-sky","city":"Silchar","country":"India","passengers":212228,"geo":"24.9129009247, 92.97869873050001"},
{"rank":862,"name":"Ağrı Airport","iata":"AJI-sky","city":"Agri","country":"Turkey","passengers":211806,"geo":"39.654541015625, 43.025978088378906"},
{"rank":863,"name":"Libertador Gral D Jose De San Martin Airport","iata":"PSS-sky","city":"Posadas","country":"Argentina","passengers":211581,"geo":"-27.3858, -55.9707"},
{"rank":864,"name":"Wagga Wagga City Airport","iata":"WGA-sky","city":"Wagga Wagga","country":"Australia","passengers":209671,"geo":"-35.1652984619, 147.466003418"},
{"rank":865,"name":"Yaoundé Nsimalen International Airport","iata":"NSI-sky","city":"Yaounde","country":"Cameroon","passengers":208973,"geo":"3.722559928894043, 11.553299903869629"},
{"rank":866,"name":"Mount Isa Airport","iata":"ISA-sky","city":"Mount Isa","country":"Australia","passengers":208395,"geo":"-20.663900375399997, 139.488998413"},
{"rank":867,"name":"Ende (H Hasan Aroeboesman) Airport","iata":"ENE-sky","city":"Ende","country":"Indonesia","passengers":208284,"geo":"-8.8492898941, 121.661003113"},
{"rank":868,"name":"Khankala Air Base","iata":"GRV-sky","city":"Grozny","country":"Russia","passengers":208052,"geo":"43.388302, 45.698601"},
{"rank":869,"name":"Magas Airport","iata":"IGT-sky","city":"Magas","country":"Russia","passengers":205843,"geo":"43.322299957300004, 45.0125999451"},
{"rank":870,"name":"Naryan Mar Airport","iata":"NNM-sky","city":"Naryan-Mar","country":"Russia","passengers":205017,"geo":"67.63999938964844, 53.12189865112305"},
{"rank":871,"name":"Laoag International Airport","iata":"LAO-sky","city":"Laoag","country":"Philippines","passengers":204156,"geo":"18.1781005859375, 120.53199768066406"},
{"rank":872,"name":"Wamena Airport","iata":"WMX-sky","city":"Wamena","country":"Indonesia","passengers":20171,"geo":"-4.10251, 138.957001"},
{"rank":873,"name":"Noyabrsk Airport","iata":"NOJ-sky","city":"Noyabrsk","country":"Russia","passengers":201612,"geo":"63.18330001831055, 75.2699966430664"},
{"rank":874,"name":"Komodo (Mutiara II) Airport","iata":"LBJ-sky","city":"Labuhan Bajo","country":"Indonesia","passengers":200212,"geo":"-8.48666, 119.889"},
{"rank":875,"name":"Roma Airport","iata":"RMA-sky","city":"Roma","country":"Australia","passengers":198099,"geo":"-26.545000076300003, 148.774993896"},
{"rank":876,"name":"Buri Ram Airport","iata":"BFV-sky","city":"Buri Ram","country":"Thailand","passengers":197988,"geo":"15.229499816894531, 103.25299835205078"},
{"rank":877,"name":"Batman Airport","iata":"BAL-sky","city":"Batman","country":"Turkey","passengers":197301,"geo":"37.929000854499996, 41.1166000366"},
{"rank":878,"name":"Port Lincoln Airport","iata":"PLO-sky","city":"Port Lincoln","country":"Australia","passengers":190853,"geo":"-34.6053009033, 135.880004883"},
{"rank":879,"name":"Adıyaman Airport","iata":"ADF-sky","city":"Adiyaman","country":"Turkey","passengers":190744,"geo":"37.7313995361, 38.4688987732"},
{"rank":880,"name":"Margaret Ekpo International Airport","iata":"CBQ-sky","city":"Calabar","country":"Nigeria","passengers":189908,"geo":"4.976019859313965, 8.347200393676758"},
{"rank":881,"name":"Pagadian Airport","iata":"PAG-sky","city":"Pagadian","country":"Philippines","passengers":18892,"geo":"7.83073144787, 123.461179733"},
{"rank":882,"name":"Abakan Airport","iata":"ABA-sky","city":"Abakan","country":"Russia","passengers":188786,"geo":"53.7400016784668, 91.38500213623047"},
{"rank":883,"name":"Dubbo City Regional Airport","iata":"DBO-sky","city":"Dubbo","country":"Australia","passengers":188736,"geo":"-32.2167015076, 148.574996948"},
{"rank":884,"name":"Co Ong Airport","iata":"VCS-sky","city":"Conson","country":"Vietnam","passengers":188549,"geo":"8.73183, 106.633003"},
{"rank":885,"name":"Spichenkovo Airport","iata":"NOZ-sky","city":"Novokuznetsk","country":"Russia","passengers":188458,"geo":"53.811401, 86.877197"},
{"rank":886,"name":"Bursa Yenişehir Airport","iata":"YEI-sky","city":"Yenisehir","country":"Turkey","passengers":186703,"geo":"40.2551994324, 29.5625991821"},
{"rank":887,"name":"Tuguegarao Airport","iata":"TUG-sky","city":"Tuguegarao","country":"Philippines","passengers":186193,"geo":"17.6433676823, 121.733150482"},
{"rank":888,"name":"Hualien Airport","iata":"HUN-sky","city":"Hualien","country":"Taiwan","passengers":184347,"geo":"24.023099899291992, 121.61799621582031"},
{"rank":889,"name":"Brownsville South Padre Island International Airport","iata":"BRO-sky","city":"Brownsville","country":"United States","passengers":183604,"geo":"25.90679931640625, -97.4259033203125"},
{"rank":890,"name":"Paraburdoo Airport","iata":"PBO-sky","city":"Paraburdoo","country":"Australia","passengers":1761,"geo":"-23.1711006165, 117.745002747"},
{"rank":891,"name":"Porto Santo Airport","iata":"PXO-sky","city":"Porto Santo","country":"Portugal","passengers":1753,"geo":"33.0733985901, -16.3500003815"},
{"rank":892,"name":"Mae Sot Airport","iata":"MAQ-sky","city":"Tak","country":"Thailand","passengers":174612,"geo":"16.699899673461914, 98.54509735107422"},
{"rank":893,"name":"Nadym Airport","iata":"NYM-sky","city":"Nadym","country":"Russia","passengers":169343,"geo":"65.48090362548828, 72.69889831542969"},
{"rank":894,"name":"Çanakkale Airport","iata":"CKZ-sky","city":"Canakkale","country":"Turkey","passengers":168031,"geo":"40.1376991272, 26.4267997742"},
{"rank":895,"name":"Termas de Río Hondo international Airport","iata":"RHD-sky","city":"Rio Hondo","country":"Argentina","passengers":167968,"geo":"-27.4966, -64.93595"},
{"rank":896,"name":"Pobedilovo Airport","iata":"KVX-sky","city":"Kirov","country":"Russia","passengers":16616,"geo":"58.503299713135, 49.348300933838"},
{"rank":897,"name":"Golosón International Airport","iata":"LCE-sky","city":"La Ceiba","country":"Honduras","passengers":165802,"geo":"15.7425, -86.852997"},
{"rank":898,"name":"Usinsk Airport","iata":"USK-sky","city":"Usinsk","country":"Russia","passengers":165087,"geo":"66.00469970703125, 57.3671989440918"},
{"rank":899,"name":"Diori Hamani International Airport","iata":"NIM-sky","city":"Niamey","country":"Niger","passengers":165,"geo":"13.4815, 2.18361"},
{"rank":900,"name":"Hervey Bay Airport","iata":"HVB-sky","city":"Hervey Bay","country":"Australia","passengers":162688,"geo":"-25.3188991547, 152.880004883"},
{"rank":901,"name":"Rijeka Airport","iata":"RJK-sky","city":"Rijeka","country":"Croatia","passengers":160,"geo":"45.21689987182617, 14.570300102233887"},
{"rank":902,"name":"Fort Lauderdale Executive Airport","iata":"FXE-sky","city":"Fort Lauderdale","country":"United States","passengers":159999,"geo":"26.1972999573, -80.1707000732"},
{"rank":903,"name":"Ketapang(Rahadi Usman) Airport","iata":"KTG-sky","city":"Ketapang","country":"Indonesia","passengers":156577,"geo":"-1.816640019416809, 109.96299743652344"},
{"rank":904,"name":"Bundaberg Airport","iata":"BDB-sky","city":"Bundaberg","country":"Australia","passengers":156231,"geo":"-24.903900146499996, 152.319000244"},
{"rank":905,"name":"Moranbah Airport","iata":"MOV-sky","city":"Moranbah","country":"Australia","passengers":156192,"geo":"-22.057800293, 148.07699585"},
{"rank":906,"name":"Tamworth Airport","iata":"TMW-sky","city":"Tamworth","country":"Australia","passengers":153838,"geo":"-31.0839004517, 150.847000122"},
{"rank":907,"name":"Penza Airport","iata":"PEZ-sky","city":"Penza","country":"Russia","passengers":152758,"geo":"53.110599517822266, 45.02109909057617"},
{"rank":908,"name":"Tekirdağ Çorlu Airport","iata":"TEQ-sky","city":"Çorlu","country":"Turkey","passengers":15152,"geo":"41.13819885253906, 27.919099807739258"},
{"rank":909,"name":"Hermes Quijada International Airport","iata":"RGA-sky","city":"Rio Grande","country":"Argentina","passengers":150849,"geo":"-53.7777, -67.7494"},
{"rank":910,"name":"Sacheon Air Base","iata":"HIN-sky","city":"Sacheon","country":"South Korea","passengers":150728,"geo":"35.088591, 128.071747"},
{"rank":911,"name":"Amasya Merzifon Airport","iata":"MZH-sky","city":"Merzifon","country":"Turkey","passengers":146707,"geo":"40.829399, 35.521999"},
{"rank":912,"name":"Devonport Airport","iata":"DPO-sky","city":"Devonport","country":"Australia","passengers":143597,"geo":"-41.1697006226, 146.429992676"},
{"rank":913,"name":"Arusha Airport","iata":"ARK-sky","city":"Arusha","country":"Tanzania","passengers":142224,"geo":"-3.3677899837493896, 36.63330078125"},
{"rank":914,"name":"Lahad Datu Airport","iata":"LDU-sky","city":"Lahad Datu","country":"Malaysia","passengers":140077,"geo":"5.032249927520752, 118.3239974975586"},
{"rank":915,"name":"Zenata – Messali El Hadj Airport","iata":"TLM-sky","city":"Tlemcen","country":"Algeria","passengers":137907,"geo":"35.0167007446, -1.45000004768"},
{"rank":916,"name":"Naga Airport","iata":"WNP-sky","city":"Naga","country":"Philippines","passengers":137329,"geo":"13.58489990234375, 123.2699966430664"},
{"rank":917,"name":"Muhammad Salahuddin Airport","iata":"BMU-sky","city":"Bima","country":"Indonesia","passengers":134977,"geo":"-8.5396499633789, 118.68699645996"},
{"rank":918,"name":"Panama Pacific International Airport","iata":"BLB-sky","city":"Howard","country":"Panama","passengers":13193,"geo":"8.91479, -79.599602"},
{"rank":919,"name":"Magnitogorsk International Airport","iata":"MQF-sky","city":"Magnetiogorsk","country":"Russia","passengers":127662,"geo":"53.39310073852539, 58.755699157714844"},
{"rank":920,"name":"Armidale Airport","iata":"ARM-sky","city":"Armidale","country":"Australia","passengers":124173,"geo":"-30.528099060099997, 151.617004395"},
{"rank":921,"name":"Wajir Airport","iata":"WJR-sky","city":"Wajir","country":"Kenya","passengers":123,"geo":"1.73324, 40.091599"},
{"rank":922,"name":"Betoambari Airport","iata":"BUW-sky","city":"Bau-Bau","country":"Indonesia","passengers":122676,"geo":"-5.486879825592041, 122.56900024414062"},
{"rank":923,"name":"Geraldton Airport","iata":"GET-sky","city":"Geraldton","country":"Australia","passengers":119467,"geo":"-28.796101, 114.707001"},
{"rank":924,"name":"Bratsk Airport","iata":"BTK-sky","city":"Bratsk","country":"Russia","passengers":117789,"geo":"56.370601654052734, 101.697998046875"},
{"rank":925,"name":"Kogalym International Airport","iata":"KGP-sky","city":"Kogalym","country":"Russia","passengers":117774,"geo":"62.190399169921875, 74.53379821777344"},
{"rank":926,"name":"Laredo International Airport","iata":"LRD-sky","city":"Laredo","country":"United States","passengers":116565,"geo":"27.543800354003906, -99.46160125732422"},
{"rank":927,"name":"Mundo Maya International Airport","iata":"FRS-sky","city":"Flores","country":"Guatemala","passengers":113444,"geo":"16.913799285899998, -89.86640167239999"},
{"rank":928,"name":"Eldoret International Airport","iata":"EDL-sky","city":"Eldoret","country":"Kenya","passengers":11125,"geo":"0.4044579863548279, 35.23889923095703"},
{"rank":929,"name":"Formosa Airport","iata":"FMA-sky","city":"Formosa","country":"Argentina","passengers":106527,"geo":"-26.2127, -58.2281"},
{"rank":930,"name":"General Urquiza Airport","iata":"PRA-sky","city":"Parana","country":"Argentina","passengers":106054,"geo":"-31.7948, -60.4804"},
{"rank":931,"name":"Aviador C. Campos Airport","iata":"CPC-sky","city":"San Martin Des Andes","country":"Argentina","passengers":104695,"geo":"-40.075401, -71.137299"},
{"rank":932,"name":"El Tehuelche Airport","iata":"PMY-sky","city":"Puerto Madryn","country":"Argentina","passengers":104315,"geo":"-42.7592, -65.1027"},
{"rank":933,"name":"Surigao Airport","iata":"SUG-sky","city":"Sangley Point","country":"Philippines","passengers":104313,"geo":"9.755838325629998, 125.480947495"},
{"rank":934,"name":"Corrientes Airport","iata":"CNQ-sky","city":"Corrientes","country":"Argentina","passengers":102977,"geo":"-27.4455, -58.7619"},
{"rank":935,"name":"Ranong Airport","iata":"UNN-sky","city":"Ranong","country":"Thailand","passengers":102228,"geo":"9.777620315551758, 98.58550262451172"},
{"rank":936,"name":"San Angelo Regional Mathis Field","iata":"SJT-sky","city":"San Angelo","country":"United States","passengers":102079,"geo":"31.35770034790039, -100.49600219726562"},
{"rank":937,"name":"Vicecomodoro Angel D. La Paz Aragonés Airport","iata":"SDE-sky","city":"Santiago Del Estero","country":"Argentina","passengers":98827,"geo":"-27.765556335399996, -64.3099975586"},
{"rank":938,"name":"Zafer Airport","iata":"KZR-sky","city":"Kutahya","country":"Turkey","passengers":95239,"geo":"39.113079, 30.128111"},
{"rank":939,"name":"Biskra Airport","iata":"BSK-sky","city":"Biskra","country":"Algeria","passengers":93644,"geo":"34.793300628699996, 5.73823022842"},
{"rank":940,"name":"Chumphon Airport","iata":"CJM-sky","city":"Chumphon","country":"Thailand","passengers":93567,"geo":"10.711199760437012, 99.36170196533203"},
{"rank":941,"name":"Sinop Airport","iata":"SIC-sky","city":"Sinop","country":"Turkey","passengers":92418,"geo":"8.2622, -79.078"},
{"rank":942,"name":"Touat Cheikh Sidi Mohamed Belkebir Airport","iata":"AZR-sky","city":"Adrar","country":"Algeria","passengers":92197,"geo":"27.837600708007812, -0.18641400337219238"},
{"rank":943,"name":"Temindung Airport","iata":"SRI-sky","city":"Samarinda","country":"Indonesia","passengers":91849,"geo":"-0.484530985355, 117.156997681"},
{"rank":944,"name":"Brigadier Mayor D Cesar Raul Ojeda Airport","iata":"LUQ-sky","city":"San Luis","country":"Argentina","passengers":90926,"geo":"-33.2732009888, -66.3563995361"},
{"rank":945,"name":"Trat Airport","iata":"TDX-sky","city":"Trat","country":"Thailand","passengers":90,"geo":"12.274600029, 102.319000244"},
{"rank":946,"name":"Yangyang International Airport","iata":"YNY-sky","city":"Sokcho / Gangneung","country":"South Korea","passengers":88704,"geo":"38.061298, 128.669006"},
{"rank":947,"name":"Pardubice Airport","iata":"PED-sky","city":"Pardubice","country":"Czech Republic","passengers":8849,"geo":"50.01340103149414, 15.73859977722168"},
{"rank":948,"name":"Horn Island Airport","iata":"HID-sky","city":"Horn Island","country":"Australia","passengers":88197,"geo":"-10.586400032, 142.289993286"},
{"rank":949,"name":"Ithaca Tompkins Regional Airport","iata":"ITH-sky","city":"Ithaca","country":"United States","passengers":8723,"geo":"42.49100112915039, -76.4583969116211"},
{"rank":950,"name":"Cauayan Airport","iata":"CYZ-sky","city":"Cauayan","country":"Philippines","passengers":85691,"geo":"16.9298992157, 121.752998352"},
{"rank":951,"name":"Kastamonu Airport","iata":"KFS-sky","city":"Kastamonu","country":"Turkey","passengers":82855,"geo":"41.31420135498047, 33.795799255371094"},
{"rank":952,"name":"Basco Airport","iata":"BSO-sky","city":"Basco","country":"Philippines","passengers":82853,"geo":"20.4513, 121.980003"},
{"rank":953,"name":"Dien Bien Phu Airport","iata":"DIN-sky","city":"Dienbienphu","country":"Vietnam","passengers":81564,"geo":"21.3974990845, 103.008003235"},
{"rank":954,"name":"Matsu Beigan Airport","iata":"MFK-sky","city":"Matsu Islands","country":"Taiwan","passengers":7985,"geo":"26.224199, 120.002998"},
{"rank":955,"name":"Chiayi Airport","iata":"CYI-sky","city":"Chiayi","country":"Taiwan","passengers":78826,"geo":"23.46179962158203, 120.39299774169922"},
{"rank":956,"name":"Wonju Airport","iata":"WJU-sky","city":"Wonju","country":"South Korea","passengers":78567,"geo":"37.441201, 127.963858"},
{"rank":957,"name":"Batna Airport","iata":"BLJ-sky","city":"Batna","country":"Algeria","passengers":78123,"geo":"35.752101898199996, 6.308589935300001"},
{"rank":958,"name":"Kununurra Airport","iata":"KNX-sky","city":"Kununurra","country":"Australia","passengers":77415,"geo":"-15.7781000137, 128.707992554"},
{"rank":959,"name":"Mount Gambier Airport","iata":"MGB-sky","city":"Mount Gambier","country":"Australia","passengers":7695,"geo":"-37.745601654052734, 140.78500366210938"},
{"rank":960,"name":"Capitan V A Almonacid Airport","iata":"IRJ-sky","city":"La Rioja","country":"Argentina","passengers":75469,"geo":"-29.3815994263, -66.7957992554"},
{"rank":961,"name":"Kapalua Airport","iata":"JHM-sky","city":"Lahania-kapalua","country":"United States","passengers":75295,"geo":"20.962900161743164, -156.67300415039062"},
{"rank":962,"name":"Olympic Dam Airport","iata":"OLP-sky","city":"Olympic Dam","country":"Australia","passengers":74346,"geo":"-30.485000610399997, 136.876998901"},
{"rank":963,"name":"Sukhothai Airport","iata":"THS-sky","city":"Sukhothai","country":"Thailand","passengers":74,"geo":"17.238000869750977, 99.81819915771484"},
{"rank":964,"name":"Phrae Airport","iata":"PRH-sky","city":"Phrae","country":"Thailand","passengers":72274,"geo":"18.132200241088867, 100.16500091552734"},
{"rank":965,"name":"Aguenar – Hadj Bey Akhamok Airport","iata":"TMR-sky","city":"Tamanrasset","country":"Algeria","passengers":70515,"geo":"22.8115005493, 5.45107984543"},
{"rank":966,"name":"Pohang Airport","iata":"KPO-sky","city":"Pohang","country":"South Korea","passengers":68226,"geo":"35.987955, 129.420383"},
{"rank":967,"name":"Lanai Airport","iata":"LNY-sky","city":"Lanai","country":"United States","passengers":64483,"geo":"20.785600662231445, -156.9510040283203"},
{"rank":968,"name":"Dong Tac Airport","iata":"TBB-sky","city":"Tuy Hoa","country":"Vietnam","passengers":64037,"geo":"13.049599647500001, 109.333999634"},
{"rank":969,"name":"Catamarca Airport","iata":"CTC-sky","city":"Catamarca","country":"Argentina","passengers":64007,"geo":"-28.5956001282, -65.751701355"},
{"rank":970,"name":"Brigadier Antonio Parodi Airport","iata":"EQS-sky","city":"Esquel","country":"Argentina","passengers":60092,"geo":"-42.908000946, -71.139503479"},
{"rank":971,"name":"Mulu Airport","iata":"MZV-sky","city":"Mulu","country":"Malaysia","passengers":60074,"geo":"4.048329830169678, 114.80500030517578"},
{"rank":972,"name":"Malacca Airport","iata":"MKZ-sky","city":"Malacca","country":"Malaysia","passengers":58703,"geo":"2.2633600235, 102.251998901"},
{"rank":973,"name":"Suboficial Ay Santiago Germano Airport","iata":"AFA-sky","city":"San Rafael","country":"Argentina","passengers":56905,"geo":"-34.588299, -68.4039"},
{"rank":974,"name":"Area De Material Airport","iata":"RCU-sky","city":"Rio Cuarto","country":"Argentina","passengers":56844,"geo":"-33.0850982666, -64.2612991333"},
{"rank":975,"name":"Limbang Airport","iata":"LMN-sky","city":"Limbang","country":"Malaysia","passengers":55437,"geo":"4.808300018310547, 115.01000213623047"},
{"rank":976,"name":"Mae Hong Son Airport","iata":"HGN-sky","city":"Mae Hong Son","country":"Thailand","passengers":55368,"geo":"19.301300048828125, 97.97579956054688"},
{"rank":977,"name":"Virac Airport","iata":"VRC-sky","city":"Virac","country":"Philippines","passengers":54021,"geo":"13.576399803161621, 124.20600128173828"},
{"rank":978,"name":"Worcester Regional Airport","iata":"ORH-sky","city":"Worcester","country":"United States","passengers":54,"geo":"42.26729965209961, -71.87570190429688"},
{"rank":979,"name":"Easterwood Field","iata":"CLL-sky","city":"College Station","country":"United States","passengers":53557,"geo":"30.58860016, -96.36380005"},
{"rank":980,"name":"Siargao Airport","iata":"IAO-sky","city":"Siargao","country":"Philippines","passengers":5315,"geo":"9.8591, 126.014"},
{"rank":981,"name":"Anadolu Airport","iata":"AOE-sky","city":"Eskissehir","country":"Turkey","passengers":51925,"geo":"39.809898, 30.5194"},
{"rank":982,"name":"Santa Rosa Airport","iata":"RSA-sky","city":"Santa Rosa","country":"Argentina","passengers":49109,"geo":"-36.588299, -64.275703"},
{"rank":983,"name":"San Jose Airport","iata":"SJI-sky","city":"San Jose","country":"Philippines","passengers":4901,"geo":"12.361499786399998, 121.04699707"},
{"rank":984,"name":"Lanyu Airport","iata":"KYD-sky","city":"Lanyu","country":"Taiwan","passengers":47406,"geo":"22.027000427246094, 121.53500366210938"},
{"rank":985,"name":"Noumérat - Moufdi Zakaria Airport","iata":"GHA-sky","city":"Ghardaia","country":"Algeria","passengers":45794,"geo":"32.38410186767578, 3.794110059738159"},
{"rank":986,"name":"Guarani International Airport","iata":"AGT-sky","city":"Ciudad del Este","country":"Paraguay","passengers":40923,"geo":"-25.454516, -54.842682"},
{"rank":987,"name":"Catarman National Airport","iata":"CRM-sky","city":"Catarman","country":"Philippines","passengers":40237,"geo":"12.502400398254395, 124.63600158691406"},
{"rank":988,"name":"Sauce Viejo Airport","iata":"SFN-sky","city":"Santa Fe","country":"Argentina","passengers":37725,"geo":"-31.7117, -60.8117"},
{"rank":989,"name":"Gobernador Castello Airport","iata":"VDM-sky","city":"Viedma","country":"Argentina","passengers":36327,"geo":"-40.8692, -63.0004"}
]